{"fullgameschedule": {"lastUpdatedOn": "2018-10-09 10:18:30 AM", "gameentry": [{"id": "46022", "week": "6", "scheduleStatus": "Normal", "originalDate": null, "originalTime": null, "delayedOrPostponedReason": null, "date": "2018-10-11", "time": "8:20PM", "awayTeam": {"ID": "54", "City": "Philadelphia", "Name": "Eagles", "Abbreviation": "PHI"}, "homeTeam": {"ID": "53", "City": "New York", "Name": "Giants", "Abbreviation": "NYG"}, "location": "MetLife Stadium"}, {"id": "46023", "week": "6", "scheduleStatus": "Normal", "originalDate": null, "originalTime": null, "delayedOrPostponedReason": null, "date": "2018-10-14", "time": "1:00PM", "awayTeam": {"ID": "76", "City": "Arizona", "Name": "Cardinals", "Abbreviation": "ARI"}, "homeTeam": {"ID": "63", "City": "Minnesota", "Name": "Vikings", "Abbreviation": "MIN"}, "location": "US Bank Stadium"}, {"id": "46024", "week": "6", "scheduleStatus": "Normal", "originalDate": null, "originalTime": null, "delayedOrPostponedReason": null, "date": "2018-10-14", "time": "1:00PM", "awayTeam": {"ID": "69", "City": "Carolina", "Name": "Panthers", "Abbreviation": "CAR"}, "homeTeam": {"ID": "55", "City": "Washington", "Name": "Redskins", "Abbreviation": "WAS"}, "location": "FedEx Field"}, {"id": "46025", "week": "6", "scheduleStatus": "Normal", "originalDate": null, "originalTime": null, "delayedOrPostponedReason": null, "date": "2018-10-14", "time": "1:00PM", "awayTeam": {"ID": "60", "City": "Chicago", "Name": "Bears", "Abbreviation": "CHI"}, "homeTeam": {"ID": "49", "City": "Miami", "Name": "Dolphins", "Abbreviation": "MIA"}, "location": "Hard Rock Stadium"}, {"id": "46026", "week": "6", "scheduleStatus": "Normal", "originalDate": null, "originalTime": null, "delayedOrPostponedReason": null, "date": "2018-10-14", "time": "1:00PM", "awayTeam": {"ID": "65", "City": "Indianapolis", "Name": "Colts", "Abbreviation": "IND"}, "homeTeam": {"ID": "51", "City": "New York", "Name": "Jets", "Abbreviation": "NYJ"}, "location": "MetLife Stadium"}, {"id": "46027", "week": "6", "scheduleStatus": "Normal", "originalDate": null, "originalTime": null, "delayedOrPostponedReason": null, "date": "2018-10-14", "time": "1:00PM", "awayTeam": {"ID": "79", "City": "Seattle", "Name": "Seahawks", "Abbreviation": "SEA"}, "homeTeam": {"ID": "74", "City": "Oakland", "Name": "Raiders", "Abbreviation": "OAK"}, "location": "Oakland-Alameda County Coliseum"}, {"id": "46028", "week": "6", "scheduleStatus": "Normal", "originalDate": null, "originalTime": null, "delayedOrPostponedReason": null, "date": "2018-10-14", "time": "1:00PM", "awayTeam": {"ID": "48", "City": "Buffalo", "Name": "Bills", "Abbreviation": "BUF"}, "homeTeam": {"ID": "64", "City": "Houston", "Name": "Texans", "Abbreviation": "HOU"}, "location": "NRG Stadium"}, {"id": "46029", "week": "6", "scheduleStatus": "Normal", "originalDate": null, "originalTime": null, "delayedOrPostponedReason": null, "date": "2018-10-14", "time": "1:00PM", "awayTeam": {"ID": "75", "City": "Los Angeles", "Name": "Chargers", "Abbreviation": "LAC"}, "homeTeam": {"ID": "58", "City": "Cleveland", "Name": "Browns", "Abbreviation": "CLE"}, "location": "FirstEnergy Stadium"}, {"id": "46030", "week": "6", "scheduleStatus": "Normal", "originalDate": null, "originalTime": null, "delayedOrPostponedReason": null, "date": "2018-10-14", "time": "1:00PM", "awayTeam": {"ID": "59", "City": "Pittsburgh", "Name": "Steelers", "Abbreviation": "PIT"}, "homeTeam": {"ID": "57", "City": "Cincinnati", "Name": "Bengals", "Abbreviation": "CIN"}, "location": "Paul Brown Stadium"}, {"id": "46031", "week": "6", "scheduleStatus": "Normal", "originalDate": null, "originalTime": null, "delayedOrPostponedReason": null, "date": "2018-10-14", "time": "1:00PM", "awayTeam": {"ID": "71", "City": "Tampa Bay", "Name": "Buccaneers", "Abbreviation": "TB"}, "homeTeam": {"ID": "68", "City": "Atlanta", "Name": "Falcons", "Abbreviation": "ATL"}, "location": "Georgia Dome"}, {"id": "46032", "week": "6", "scheduleStatus": "Normal", "originalDate": null, "originalTime": null, "delayedOrPostponedReason": null, "date": "2018-10-14", "time": "4:05PM", "awayTeam": {"ID": "77", "City": "Los Angeles", "Name": "Rams", "Abbreviation": "LA"}, "homeTeam": {"ID": "72", "City": "Denver", "Name": "Broncos", "Abbreviation": "DEN"}, "location": "Sports Authority Field at Mile High"}, {"id": "46033", "week": "6", "scheduleStatus": "Normal", "originalDate": null, "originalTime": null, "delayedOrPostponedReason": null, "date": "2018-10-14", "time": "4:25PM", "awayTeam": {"ID": "56", "City": "Baltimore", "Name": "Ravens", "Abbreviation": "BAL"}, "homeTeam": {"ID": "67", "City": "Tennessee", "Name": "Titans", "Abbreviation": "TEN"}, "location": "Nissan Stadium"}, {"id": "46034", "week": "6", "scheduleStatus": "Normal", "originalDate": null, "originalTime": null, "delayedOrPostponedReason": null, "date": "2018-10-14", "time": "4:25PM", "awayTeam": {"ID": "66", "City": "Jacksonville", "Name": "Jaguars", "Abbreviation": "JAX"}, "homeTeam": {"ID": "52", "City": "Dallas", "Name": "Cowboys", "Abbreviation": "DAL"}, "location": "AT&T Stadium"}, {"id": "46035", "week": "6", "scheduleStatus": "Normal", "originalDate": null, "originalTime": null, "delayedOrPostponedReason": null, "date": "2018-10-14", "time": "8:20PM", "awayTeam": {"ID": "73", "City": "Kansas City", "Name": "Chiefs", "Abbreviation": "KC"}, "homeTeam": {"ID": "50", "City": "New England", "Name": "Patriots", "Abbreviation": "NE"}, "location": "Gillette Stadium"}, {"id": "46036", "week": "6", "scheduleStatus": "Normal", "originalDate": null, "originalTime": null, "delayedOrPostponedReason": null, "date": "2018-10-15", "time": "8:15PM", "awayTeam": {"ID": "78", "City": "San Francisco", "Name": "49ers", "Abbreviation": "SF"}, "homeTeam": {"ID": "62", "City": "Green Bay", "Name": "Packers", "Abbreviation": "GB"}, "location": "Lambeau Field"}]}}