{"latestupdates": {"lastUpdatedOn": "2018-09-19 6:55:14 PM", "feedentry": [{"feed": {"Name": "Cumulative Player Stats", "Abbreviation": "CUMULATIVE_PLAYER_STATS", "Description": "A list of player stats totals for all roster players, summarized by their latest team."}, "lastUpdatedOn": "2018-09-17 8:33:46 PM"}, {"feed": {"Name": "Cumulative Player Stats", "Abbreviation": "CUMULATIVE_PLAYER_STATS", "Description": "A list of player stats totals for all roster players, summarized by their latest team."}, "lastUpdatedOn": null}, {"feed": {"Name": "Cumulative Player Stats", "Abbreviation": "CUMULATIVE_PLAYER_STATS", "Description": "A list of player stats totals for all roster players, summarized by their latest team."}, "lastUpdatedOn": null}, {"feed": {"Name": "Seasonal Games", "Abbreviation": "SEASONAL_GAMES", "Description": "All games for a season including schedule, status and scores."}, "lastUpdatedOn": "2018-09-18 12:27:45 AM"}, {"feed": {"Name": "Daily Games", "Abbreviation": "DAILY_GAMES", "Description": "All games on a given date including schedule, status and scores."}, "forDate": [{"forDate": "2018-09-06", "lastUpdatedOn": "2018-09-13 2:11:01 PM"}, {"forDate": "2018-09-09", "lastUpdatedOn": "2018-09-13 4:23:14 PM"}, {"forDate": "2018-09-10", "lastUpdatedOn": "2018-09-13 4:31:03 PM"}, {"forDate": "2018-09-13", "lastUpdatedOn": "2018-09-14 12:59:27 AM"}, {"forDate": "2018-09-16", "lastUpdatedOn": "2018-09-17 9:32:08 AM"}, {"forDate": "2018-09-17", "lastUpdatedOn": "2018-09-18 12:27:17 AM"}]}, {"feed": {"Name": "Weekly Games", "Abbreviation": "WEEKLY_GAMES", "Description": "All games for a given week including schedule, status and scores."}, "forDate": [{"forDate": "2018-09-06", "lastUpdatedOn": "2018-09-13 2:11:02 PM"}, {"forDate": "2018-09-09", "lastUpdatedOn": "2018-09-13 4:23:14 PM"}, {"forDate": "2018-09-10", "lastUpdatedOn": "2018-09-13 4:31:03 PM"}, {"forDate": "2018-09-13", "lastUpdatedOn": "2018-09-14 12:59:27 AM"}, {"forDate": "2018-09-16", "lastUpdatedOn": "2018-09-17 9:32:08 AM"}, {"forDate": "2018-09-17", "lastUpdatedOn": "2018-09-18 12:27:18 AM"}]}, {"feed": {"Name": "Seasonal DFS", "Abbreviation": "SEASONAL_DFS", "Description": "All DFS entries for a season including salaries and fantasy points."}, "lastUpdatedOn": "2018-09-19 7:54:42 AM"}, {"feed": {"Name": "Daily DFS", "Abbreviation": "DAILY_DFS", "Description": "All DFS entries for a given date including salaries and fantasy points."}, "forDate": [{"forDate": "2018-09-06", "lastUpdatedOn": "2018-09-13 2:11:01 PM"}, {"forDate": "2018-09-06", "lastUpdatedOn": "2018-09-19 7:54:41 AM"}, {"forDate": "2018-09-09", "lastUpdatedOn": "2018-09-13 4:23:14 PM"}, {"forDate": "2018-09-10", "lastUpdatedOn": "2018-09-13 4:31:03 PM"}, {"forDate": "2018-09-13", "lastUpdatedOn": "2018-09-14 12:59:27 AM"}, {"forDate": "2018-09-16", "lastUpdatedOn": "2018-09-17 9:32:07 AM"}, {"forDate": "2018-09-17", "lastUpdatedOn": "2018-09-18 12:27:15 AM"}, {"forDate": "2018-09-20", "lastUpdatedOn": "2018-09-18 8:14:15 AM"}]}, {"feed": {"Name": "Weekly DFS", "Abbreviation": "WEEKLY_DFS", "Description": "All DFS entries for a given week including salaries and fantasy points."}, "forDate": [{"forDate": "2018-09-06", "lastUpdatedOn": "2018-09-13 2:11:04 PM"}, {"forDate": "2018-09-06", "lastUpdatedOn": "2018-09-19 7:54:40 AM"}, {"forDate": "2018-09-09", "lastUpdatedOn": "2018-09-13 4:23:17 PM"}, {"forDate": "2018-09-10", "lastUpdatedOn": "2018-09-13 4:31:06 PM"}, {"forDate": "2018-09-13", "lastUpdatedOn": "2018-09-14 12:59:27 AM"}, {"forDate": "2018-09-16", "lastUpdatedOn": "2018-09-17 9:32:11 AM"}, {"forDate": "2018-09-17", "lastUpdatedOn": "2018-09-18 12:27:19 AM"}, {"forDate": "2018-09-20", "lastUpdatedOn": "2018-09-18 8:14:15 AM"}]}, {"feed": {"Name": "Seasonal Player Gamelogs", "Abbreviation": "SEASONAL_PLAYER_GAMELOGS", "Description": "All player game logs for a season including game and stats."}, "lastUpdatedOn": "2018-09-19 7:54:40 AM"}, {"feed": {"Name": "Daily Player Gamelogs", "Abbreviation": "DAILY_PLAYER_GAMELOGS", "Description": "All player game logs for a date including game and stats."}, "forDate": [{"forDate": "2018-09-06", "lastUpdatedOn": "2018-09-13 2:11:02 PM"}, {"forDate": "2018-09-06", "lastUpdatedOn": "2018-09-19 7:54:39 AM"}, {"forDate": "2018-09-09", "lastUpdatedOn": "2018-09-13 4:23:15 PM"}, {"forDate": "2018-09-10", "lastUpdatedOn": "2018-09-13 4:31:04 PM"}, {"forDate": "2018-09-13", "lastUpdatedOn": "2018-09-14 12:59:27 AM"}, {"forDate": "2018-09-16", "lastUpdatedOn": "2018-09-17 9:32:08 AM"}, {"forDate": "2018-09-17", "lastUpdatedOn": "2018-09-18 12:27:18 AM"}]}, {"feed": {"Name": "Weekly Player Gamelogs", "Abbreviation": "WEEKLY_PLAYER_GAMELOGS", "Description": "All player game logs for a week including game and stats."}, "forDate": [{"forDate": "2018-09-06", "lastUpdatedOn": "2018-09-13 2:11:02 PM"}, {"forDate": "2018-09-06", "lastUpdatedOn": "2018-09-19 7:54:39 AM"}, {"forDate": "2018-09-09", "lastUpdatedOn": "2018-09-13 4:23:15 PM"}, {"forDate": "2018-09-10", "lastUpdatedOn": "2018-09-13 4:31:04 PM"}, {"forDate": "2018-09-13", "lastUpdatedOn": "2018-09-14 12:59:27 AM"}, {"forDate": "2018-09-16", "lastUpdatedOn": "2018-09-17 9:32:08 AM"}, {"forDate": "2018-09-17", "lastUpdatedOn": "2018-09-18 12:27:18 AM"}]}, {"feed": {"Name": "Seasonal Team Gamelogs", "Abbreviation": "SEASONAL_TEAM_GAMELOGS", "Description": "All team game logs for a season including game and stats."}, "lastUpdatedOn": "2018-09-18 12:27:45 AM"}, {"feed": {"Name": "Daily Team Gamelogs", "Abbreviation": "DAILY_TEAM_GAMELOGS", "Description": "All team game logs for a date including game and stats."}, "forDate": [{"forDate": "2018-09-06", "lastUpdatedOn": "2018-09-13 2:11:03 PM"}, {"forDate": "2018-09-09", "lastUpdatedOn": "2018-09-13 4:23:15 PM"}, {"forDate": "2018-09-10", "lastUpdatedOn": "2018-09-13 4:31:04 PM"}, {"forDate": "2018-09-13", "lastUpdatedOn": "2018-09-14 12:59:27 AM"}, {"forDate": "2018-09-16", "lastUpdatedOn": "2018-09-17 9:32:09 AM"}, {"forDate": "2018-09-17", "lastUpdatedOn": "2018-09-18 12:27:18 AM"}]}, {"feed": {"Name": "Weekly Team Gamelogs", "Abbreviation": "WEEKLY_TEAM_GAMELOGS", "Description": "All team game logs for a week including game and stats."}, "forDate": [{"forDate": "2018-09-06", "lastUpdatedOn": "2018-09-13 2:11:03 PM"}, {"forDate": "2018-09-09", "lastUpdatedOn": "2018-09-13 4:23:15 PM"}, {"forDate": "2018-09-10", "lastUpdatedOn": "2018-09-13 4:31:04 PM"}, {"forDate": "2018-09-13", "lastUpdatedOn": "2018-09-14 12:59:27 AM"}, {"forDate": "2018-09-16", "lastUpdatedOn": "2018-09-17 9:32:09 AM"}, {"forDate": "2018-09-17", "lastUpdatedOn": "2018-09-18 12:27:19 AM"}]}, {"feed": {"Name": "Game Boxscore", "Abbreviation": "GAME_BOXSCORE", "Description": "A boxscore for a game including game details and team/player stats."}, "forGame": [{"game": [{"ID": "45944", "date": "2018-09-06", "awayTeam": {"ID": "68", "City": "Atlanta", "Name": "Falcons", "Abbreviation": "ATL"}, "homeTeam": {"ID": "54", "City": "Philadelphia", "Name": "Eagles", "Abbreviation": "PHI"}, "location": "Lincoln Financial Field"}], "lastUpdatedOn": "2018-09-13 2:10:58 PM"}, {"game": [{"ID": "45945", "date": "2018-09-09", "awayTeam": {"ID": "48", "City": "Buffalo", "Name": "Bills", "Abbreviation": "BUF"}, "homeTeam": {"ID": "56", "City": "Baltimore", "Name": "Ravens", "Abbreviation": "BAL"}, "location": "M&T Bank Stadium"}], "lastUpdatedOn": "2018-09-13 1:36:54 PM"}, {"game": [{"ID": "45946", "date": "2018-09-09", "awayTeam": {"ID": "57", "City": "Cincinnati", "Name": "Bengals", "Abbreviation": "CIN"}, "homeTeam": {"ID": "65", "City": "Indianapolis", "Name": "Colts", "Abbreviation": "IND"}, "location": "Lucas Oil Stadium"}], "lastUpdatedOn": "2018-09-13 2:26:55 PM"}, {"game": [{"ID": "45947", "date": "2018-09-09", "awayTeam": {"ID": "64", "City": "Houston", "Name": "Texans", "Abbreviation": "HOU"}, "homeTeam": {"ID": "50", "City": "New England", "Name": "Patriots", "Abbreviation": "NE"}, "location": "Gillette Stadium"}], "lastUpdatedOn": "2018-09-13 2:52:54 PM"}, {"game": [{"ID": "45948", "date": "2018-09-09", "awayTeam": {"ID": "66", "City": "Jacksonville", "Name": "Jaguars", "Abbreviation": "JAX"}, "homeTeam": {"ID": "53", "City": "New York", "Name": "Giants", "Abbreviation": "NYG"}, "location": "MetLife Stadium"}], "lastUpdatedOn": "2018-09-13 2:53:08 PM"}, {"game": [{"ID": "45949", "date": "2018-09-09", "awayTeam": {"ID": "59", "City": "Pittsburgh", "Name": "Steelers", "Abbreviation": "PIT"}, "homeTeam": {"ID": "58", "City": "Cleveland", "Name": "Browns", "Abbreviation": "CLE"}, "location": "FirstEnergy Stadium"}], "lastUpdatedOn": "2018-09-13 2:53:15 PM"}, {"game": [{"ID": "45950", "date": "2018-09-09", "awayTeam": {"ID": "78", "City": "San Francisco", "Name": "49ers", "Abbreviation": "SF"}, "homeTeam": {"ID": "63", "City": "Minnesota", "Name": "Vikings", "Abbreviation": "MIN"}, "location": "US Bank Stadium"}], "lastUpdatedOn": "2018-09-13 2:53:17 PM"}, {"game": [{"ID": "45951", "date": "2018-09-09", "awayTeam": {"ID": "71", "City": "Tampa Bay", "Name": "Buccaneers", "Abbreviation": "TB"}, "homeTeam": {"ID": "70", "City": "New Orleans", "Name": "Saints", "Abbreviation": "NO"}, "location": "Mercedes-Benz Stadium"}], "lastUpdatedOn": "2018-09-13 3:00:54 PM"}, {"game": [{"ID": "45952", "date": "2018-09-09", "awayTeam": {"ID": "67", "City": "Tennessee", "Name": "Titans", "Abbreviation": "TEN"}, "homeTeam": {"ID": "49", "City": "Miami", "Name": "Dolphins", "Abbreviation": "MIA"}, "location": "Hard Rock Stadium"}], "lastUpdatedOn": "2018-09-13 3:08:54 PM"}, {"game": [{"ID": "45953", "date": "2018-09-09", "awayTeam": {"ID": "73", "City": "Kansas City", "Name": "Chiefs", "Abbreviation": "KC"}, "homeTeam": {"ID": "75", "City": "Los Angeles", "Name": "Chargers", "Abbreviation": "LAC"}, "location": "StubHub Center"}], "lastUpdatedOn": "2018-09-13 3:19:13 PM"}, {"game": [{"ID": "45954", "date": "2018-09-09", "awayTeam": {"ID": "52", "City": "Dallas", "Name": "Cowboys", "Abbreviation": "DAL"}, "homeTeam": {"ID": "69", "City": "Carolina", "Name": "Panthers", "Abbreviation": "CAR"}, "location": "Bank of America Stadium"}], "lastUpdatedOn": "2018-09-13 4:09:04 PM"}, {"game": [{"ID": "45955", "date": "2018-09-09", "awayTeam": {"ID": "79", "City": "Seattle", "Name": "Seahawks", "Abbreviation": "SEA"}, "homeTeam": {"ID": "72", "City": "Denver", "Name": "Broncos", "Abbreviation": "DEN"}, "location": "Sports Authority Field"}], "lastUpdatedOn": "2018-09-13 4:09:12 PM"}, {"game": [{"ID": "45956", "date": "2018-09-09", "awayTeam": {"ID": "55", "City": "Washington", "Name": "Redskins", "Abbreviation": "WAS"}, "homeTeam": {"ID": "76", "City": "Arizona", "Name": "Cardinals", "Abbreviation": "ARI"}, "location": "University of Phoenix Stadium"}], "lastUpdatedOn": "2018-09-13 4:09:13 PM"}, {"game": [{"ID": "45957", "date": "2018-09-09", "awayTeam": {"ID": "60", "City": "Chicago", "Name": "Bears", "Abbreviation": "CHI"}, "homeTeam": {"ID": "62", "City": "Green Bay", "Name": "Packers", "Abbreviation": "GB"}, "location": "Lambeau Field"}], "lastUpdatedOn": "2018-09-13 4:23:13 PM"}, {"game": [{"ID": "45958", "date": "2018-09-10", "awayTeam": {"ID": "51", "City": "New York", "Name": "Jets", "Abbreviation": "NYJ"}, "homeTeam": {"ID": "61", "City": "Detroit", "Name": "Lions", "Abbreviation": "DET"}, "location": "Ford Field"}], "lastUpdatedOn": "2018-09-13 4:23:17 PM"}, {"game": [{"ID": "45959", "date": "2018-09-10", "awayTeam": {"ID": "77", "City": "Los Angeles", "Name": "Rams", "Abbreviation": "LA"}, "homeTeam": {"ID": "74", "City": "Oakland", "Name": "Raiders", "Abbreviation": "OAK"}, "location": "Oakland-Alameda Co. Coliseum"}], "lastUpdatedOn": "2018-09-13 4:31:02 PM"}, {"game": [{"ID": "45960", "date": "2018-09-13", "awayTeam": {"ID": "56", "City": "Baltimore", "Name": "Ravens", "Abbreviation": "BAL"}, "homeTeam": {"ID": "57", "City": "Cincinnati", "Name": "Bengals", "Abbreviation": "CIN"}, "location": "Paul Brown Stadium"}], "lastUpdatedOn": "2018-09-14 12:59:26 AM"}, {"game": [{"ID": "45961", "date": "2018-09-16", "awayTeam": {"ID": "69", "City": "Carolina", "Name": "Panthers", "Abbreviation": "CAR"}, "homeTeam": {"ID": "68", "City": "Atlanta", "Name": "Falcons", "Abbreviation": "ATL"}, "location": "Georgia Dome"}], "lastUpdatedOn": "2018-09-16 6:55:43 PM"}, {"game": [{"ID": "45962", "date": "2018-09-16", "awayTeam": {"ID": "58", "City": "Cleveland", "Name": "Browns", "Abbreviation": "CLE"}, "homeTeam": {"ID": "70", "City": "New Orleans", "Name": "Saints", "Abbreviation": "NO"}, "location": "Mercedes-Benz Stadium"}], "lastUpdatedOn": "2018-09-16 6:57:11 PM"}, {"game": [{"ID": "45963", "date": "2018-09-16", "awayTeam": {"ID": "64", "City": "Houston", "Name": "Texans", "Abbreviation": "HOU"}, "homeTeam": {"ID": "67", "City": "Tennessee", "Name": "Titans", "Abbreviation": "TEN"}, "location": "Nissan Stadium"}], "lastUpdatedOn": "2018-09-16 6:59:54 PM"}, {"game": [{"ID": "45964", "date": "2018-09-16", "awayTeam": {"ID": "65", "City": "Indianapolis", "Name": "Colts", "Abbreviation": "IND"}, "homeTeam": {"ID": "55", "City": "Washington", "Name": "Redskins", "Abbreviation": "WAS"}, "location": "FedEx Field"}], "lastUpdatedOn": "2018-09-16 7:07:37 PM"}, {"game": [{"ID": "45965", "date": "2018-09-16", "awayTeam": {"ID": "73", "City": "Kansas City", "Name": "Chiefs", "Abbreviation": "KC"}, "homeTeam": {"ID": "59", "City": "Pittsburgh", "Name": "Steelers", "Abbreviation": "PIT"}, "location": "Heinz Field"}], "lastUpdatedOn": "2018-09-16 7:31:21 PM"}, {"game": [{"ID": "45966", "date": "2018-09-16", "awayTeam": {"ID": "75", "City": "Los Angeles", "Name": "Chargers", "Abbreviation": "LAC"}, "homeTeam": {"ID": "48", "City": "Buffalo", "Name": "Bills", "Abbreviation": "BUF"}, "location": "New Era Field"}], "lastUpdatedOn": "2018-09-16 7:37:21 PM"}, {"game": [{"ID": "45967", "date": "2018-09-16", "awayTeam": {"ID": "49", "City": "Miami", "Name": "Dolphins", "Abbreviation": "MIA"}, "homeTeam": {"ID": "51", "City": "New York", "Name": "Jets", "Abbreviation": "NYJ"}, "location": "MetLife Stadium"}], "lastUpdatedOn": "2018-09-16 7:49:21 PM"}, {"game": [{"ID": "45968", "date": "2018-09-16", "awayTeam": {"ID": "63", "City": "Minnesota", "Name": "Vikings", "Abbreviation": "MIN"}, "homeTeam": {"ID": "62", "City": "Green Bay", "Name": "Packers", "Abbreviation": "GB"}, "location": "Lambeau Field"}], "lastUpdatedOn": "2018-09-16 7:49:26 PM"}, {"game": [{"ID": "45969", "date": "2018-09-16", "awayTeam": {"ID": "54", "City": "Philadelphia", "Name": "Eagles", "Abbreviation": "PHI"}, "homeTeam": {"ID": "71", "City": "Tampa Bay", "Name": "Buccaneers", "Abbreviation": "TB"}, "location": "Raymond James Stadium"}], "lastUpdatedOn": "2018-09-16 8:01:21 PM"}, {"game": [{"ID": "45970", "date": "2018-09-16", "awayTeam": {"ID": "76", "City": "Arizona", "Name": "Cardinals", "Abbreviation": "ARI"}, "homeTeam": {"ID": "77", "City": "Los Angeles", "Name": "Rams", "Abbreviation": "LA"}, "location": "Los Angeles Memorial Coliseum"}], "lastUpdatedOn": "2018-09-16 8:01:25 PM"}, {"game": [{"ID": "45971", "date": "2018-09-16", "awayTeam": {"ID": "61", "City": "Detroit", "Name": "Lions", "Abbreviation": "DET"}, "homeTeam": {"ID": "78", "City": "San Francisco", "Name": "49ers", "Abbreviation": "SF"}, "location": "Levi's Stadium"}], "lastUpdatedOn": "2018-09-17 8:57:51 AM"}, {"game": [{"ID": "45972", "date": "2018-09-16", "awayTeam": {"ID": "74", "City": "Oakland", "Name": "Raiders", "Abbreviation": "OAK"}, "homeTeam": {"ID": "72", "City": "Denver", "Name": "Broncos", "Abbreviation": "DEN"}, "location": "Sports Authority Field"}], "lastUpdatedOn": "2018-09-17 9:07:51 AM"}, {"game": [{"ID": "45973", "date": "2018-09-16", "awayTeam": {"ID": "50", "City": "New England", "Name": "Patriots", "Abbreviation": "NE"}, "homeTeam": {"ID": "66", "City": "Jacksonville", "Name": "Jaguars", "Abbreviation": "JAX"}, "location": "EverBank Field"}], "lastUpdatedOn": "2018-09-17 9:32:07 AM"}, {"game": [{"ID": "45974", "date": "2018-09-16", "awayTeam": {"ID": "53", "City": "New York", "Name": "Giants", "Abbreviation": "NYG"}, "homeTeam": {"ID": "52", "City": "Dallas", "Name": "Cowboys", "Abbreviation": "DAL"}, "location": "AT&T Stadium"}], "lastUpdatedOn": "2018-09-17 9:32:11 AM"}, {"game": [{"ID": "45975", "date": "2018-09-17", "awayTeam": {"ID": "79", "City": "Seattle", "Name": "Seahawks", "Abbreviation": "SEA"}, "homeTeam": {"ID": "60", "City": "Chicago", "Name": "Bears", "Abbreviation": "CHI"}, "location": "Soldier Field"}], "lastUpdatedOn": "2018-09-18 12:27:06 AM"}]}, {"feed": {"Name": "Game Play-By-Play", "Abbreviation": "GAME_PLAYBYPLAY", "Description": "All play-by-play events for a game with full details."}, "forGame": [{"game": [{"ID": "45944", "date": "2018-09-06", "awayTeam": {"ID": "68", "City": "Atlanta", "Name": "Falcons", "Abbreviation": "ATL"}, "homeTeam": {"ID": "54", "City": "Philadelphia", "Name": "Eagles", "Abbreviation": "PHI"}, "location": "Lincoln Financial Field"}], "lastUpdatedOn": "2018-09-13 2:10:59 PM"}, {"game": [{"ID": "45945", "date": "2018-09-09", "awayTeam": {"ID": "48", "City": "Buffalo", "Name": "Bills", "Abbreviation": "BUF"}, "homeTeam": {"ID": "56", "City": "Baltimore", "Name": "Ravens", "Abbreviation": "BAL"}, "location": "M&T Bank Stadium"}], "lastUpdatedOn": "2018-09-13 1:36:55 PM"}, {"game": [{"ID": "45946", "date": "2018-09-09", "awayTeam": {"ID": "57", "City": "Cincinnati", "Name": "Bengals", "Abbreviation": "CIN"}, "homeTeam": {"ID": "65", "City": "Indianapolis", "Name": "Colts", "Abbreviation": "IND"}, "location": "Lucas Oil Stadium"}], "lastUpdatedOn": "2018-09-13 2:26:55 PM"}, {"game": [{"ID": "45947", "date": "2018-09-09", "awayTeam": {"ID": "64", "City": "Houston", "Name": "Texans", "Abbreviation": "HOU"}, "homeTeam": {"ID": "50", "City": "New England", "Name": "Patriots", "Abbreviation": "NE"}, "location": "Gillette Stadium"}], "lastUpdatedOn": "2018-09-13 2:52:54 PM"}, {"game": [{"ID": "45948", "date": "2018-09-09", "awayTeam": {"ID": "66", "City": "Jacksonville", "Name": "Jaguars", "Abbreviation": "JAX"}, "homeTeam": {"ID": "53", "City": "New York", "Name": "Giants", "Abbreviation": "NYG"}, "location": "MetLife Stadium"}], "lastUpdatedOn": "2018-09-13 2:53:08 PM"}, {"game": [{"ID": "45949", "date": "2018-09-09", "awayTeam": {"ID": "59", "City": "Pittsburgh", "Name": "Steelers", "Abbreviation": "PIT"}, "homeTeam": {"ID": "58", "City": "Cleveland", "Name": "Browns", "Abbreviation": "CLE"}, "location": "FirstEnergy Stadium"}], "lastUpdatedOn": "2018-09-13 2:53:15 PM"}, {"game": [{"ID": "45950", "date": "2018-09-09", "awayTeam": {"ID": "78", "City": "San Francisco", "Name": "49ers", "Abbreviation": "SF"}, "homeTeam": {"ID": "63", "City": "Minnesota", "Name": "Vikings", "Abbreviation": "MIN"}, "location": "US Bank Stadium"}], "lastUpdatedOn": "2018-09-13 2:53:17 PM"}, {"game": [{"ID": "45951", "date": "2018-09-09", "awayTeam": {"ID": "71", "City": "Tampa Bay", "Name": "Buccaneers", "Abbreviation": "TB"}, "homeTeam": {"ID": "70", "City": "New Orleans", "Name": "Saints", "Abbreviation": "NO"}, "location": "Mercedes-Benz Stadium"}], "lastUpdatedOn": "2018-09-13 3:00:54 PM"}, {"game": [{"ID": "45952", "date": "2018-09-09", "awayTeam": {"ID": "67", "City": "Tennessee", "Name": "Titans", "Abbreviation": "TEN"}, "homeTeam": {"ID": "49", "City": "Miami", "Name": "Dolphins", "Abbreviation": "MIA"}, "location": "Hard Rock Stadium"}], "lastUpdatedOn": "2018-09-13 3:08:55 PM"}, {"game": [{"ID": "45953", "date": "2018-09-09", "awayTeam": {"ID": "73", "City": "Kansas City", "Name": "Chiefs", "Abbreviation": "KC"}, "homeTeam": {"ID": "75", "City": "Los Angeles", "Name": "Chargers", "Abbreviation": "LAC"}, "location": "StubHub Center"}], "lastUpdatedOn": "2018-09-13 3:19:14 PM"}, {"game": [{"ID": "45954", "date": "2018-09-09", "awayTeam": {"ID": "52", "City": "Dallas", "Name": "Cowboys", "Abbreviation": "DAL"}, "homeTeam": {"ID": "69", "City": "Carolina", "Name": "Panthers", "Abbreviation": "CAR"}, "location": "Bank of America Stadium"}], "lastUpdatedOn": "2018-09-13 4:09:06 PM"}, {"game": [{"ID": "45955", "date": "2018-09-09", "awayTeam": {"ID": "79", "City": "Seattle", "Name": "Seahawks", "Abbreviation": "SEA"}, "homeTeam": {"ID": "72", "City": "Denver", "Name": "Broncos", "Abbreviation": "DEN"}, "location": "Sports Authority Field"}], "lastUpdatedOn": "2018-09-13 4:09:12 PM"}, {"game": [{"ID": "45956", "date": "2018-09-09", "awayTeam": {"ID": "55", "City": "Washington", "Name": "Redskins", "Abbreviation": "WAS"}, "homeTeam": {"ID": "76", "City": "Arizona", "Name": "Cardinals", "Abbreviation": "ARI"}, "location": "University of Phoenix Stadium"}], "lastUpdatedOn": "2018-09-13 4:09:15 PM"}, {"game": [{"ID": "45957", "date": "2018-09-09", "awayTeam": {"ID": "60", "City": "Chicago", "Name": "Bears", "Abbreviation": "CHI"}, "homeTeam": {"ID": "62", "City": "Green Bay", "Name": "Packers", "Abbreviation": "GB"}, "location": "Lambeau Field"}], "lastUpdatedOn": "2018-09-13 4:23:13 PM"}, {"game": [{"ID": "45958", "date": "2018-09-10", "awayTeam": {"ID": "51", "City": "New York", "Name": "Jets", "Abbreviation": "NYJ"}, "homeTeam": {"ID": "61", "City": "Detroit", "Name": "Lions", "Abbreviation": "DET"}, "location": "Ford Field"}], "lastUpdatedOn": "2018-09-13 4:23:19 PM"}, {"game": [{"ID": "45959", "date": "2018-09-10", "awayTeam": {"ID": "77", "City": "Los Angeles", "Name": "Rams", "Abbreviation": "LA"}, "homeTeam": {"ID": "74", "City": "Oakland", "Name": "Raiders", "Abbreviation": "OAK"}, "location": "Oakland-Alameda Co. Coliseum"}], "lastUpdatedOn": "2018-09-13 4:31:02 PM"}, {"game": [{"ID": "45960", "date": "2018-09-13", "awayTeam": {"ID": "56", "City": "Baltimore", "Name": "Ravens", "Abbreviation": "BAL"}, "homeTeam": {"ID": "57", "City": "Cincinnati", "Name": "Bengals", "Abbreviation": "CIN"}, "location": "Paul Brown Stadium"}], "lastUpdatedOn": "2018-09-14 12:59:26 AM"}, {"game": [{"ID": "45961", "date": "2018-09-16", "awayTeam": {"ID": "69", "City": "Carolina", "Name": "Panthers", "Abbreviation": "CAR"}, "homeTeam": {"ID": "68", "City": "Atlanta", "Name": "Falcons", "Abbreviation": "ATL"}, "location": "Georgia Dome"}], "lastUpdatedOn": "2018-09-16 6:55:45 PM"}, {"game": [{"ID": "45962", "date": "2018-09-16", "awayTeam": {"ID": "58", "City": "Cleveland", "Name": "Browns", "Abbreviation": "CLE"}, "homeTeam": {"ID": "70", "City": "New Orleans", "Name": "Saints", "Abbreviation": "NO"}, "location": "Mercedes-Benz Stadium"}], "lastUpdatedOn": "2018-09-16 6:57:12 PM"}, {"game": [{"ID": "45963", "date": "2018-09-16", "awayTeam": {"ID": "64", "City": "Houston", "Name": "Texans", "Abbreviation": "HOU"}, "homeTeam": {"ID": "67", "City": "Tennessee", "Name": "Titans", "Abbreviation": "TEN"}, "location": "Nissan Stadium"}], "lastUpdatedOn": "2018-09-16 6:59:56 PM"}, {"game": [{"ID": "45964", "date": "2018-09-16", "awayTeam": {"ID": "65", "City": "Indianapolis", "Name": "Colts", "Abbreviation": "IND"}, "homeTeam": {"ID": "55", "City": "Washington", "Name": "Redskins", "Abbreviation": "WAS"}, "location": "FedEx Field"}], "lastUpdatedOn": "2018-09-16 7:07:38 PM"}, {"game": [{"ID": "45965", "date": "2018-09-16", "awayTeam": {"ID": "73", "City": "Kansas City", "Name": "Chiefs", "Abbreviation": "KC"}, "homeTeam": {"ID": "59", "City": "Pittsburgh", "Name": "Steelers", "Abbreviation": "PIT"}, "location": "Heinz Field"}], "lastUpdatedOn": "2018-09-16 7:31:21 PM"}, {"game": [{"ID": "45966", "date": "2018-09-16", "awayTeam": {"ID": "75", "City": "Los Angeles", "Name": "Chargers", "Abbreviation": "LAC"}, "homeTeam": {"ID": "48", "City": "Buffalo", "Name": "Bills", "Abbreviation": "BUF"}, "location": "New Era Field"}], "lastUpdatedOn": "2018-09-16 7:37:21 PM"}, {"game": [{"ID": "45967", "date": "2018-09-16", "awayTeam": {"ID": "49", "City": "Miami", "Name": "Dolphins", "Abbreviation": "MIA"}, "homeTeam": {"ID": "51", "City": "New York", "Name": "Jets", "Abbreviation": "NYJ"}, "location": "MetLife Stadium"}], "lastUpdatedOn": "2018-09-16 7:49:21 PM"}, {"game": [{"ID": "45968", "date": "2018-09-16", "awayTeam": {"ID": "63", "City": "Minnesota", "Name": "Vikings", "Abbreviation": "MIN"}, "homeTeam": {"ID": "62", "City": "Green Bay", "Name": "Packers", "Abbreviation": "GB"}, "location": "Lambeau Field"}], "lastUpdatedOn": "2018-09-16 7:49:27 PM"}, {"game": [{"ID": "45969", "date": "2018-09-16", "awayTeam": {"ID": "54", "City": "Philadelphia", "Name": "Eagles", "Abbreviation": "PHI"}, "homeTeam": {"ID": "71", "City": "Tampa Bay", "Name": "Buccaneers", "Abbreviation": "TB"}, "location": "Raymond James Stadium"}], "lastUpdatedOn": "2018-09-16 8:01:21 PM"}, {"game": [{"ID": "45970", "date": "2018-09-16", "awayTeam": {"ID": "76", "City": "Arizona", "Name": "Cardinals", "Abbreviation": "ARI"}, "homeTeam": {"ID": "77", "City": "Los Angeles", "Name": "Rams", "Abbreviation": "LA"}, "location": "Los Angeles Memorial Coliseum"}], "lastUpdatedOn": "2018-09-16 8:01:26 PM"}, {"game": [{"ID": "45971", "date": "2018-09-16", "awayTeam": {"ID": "61", "City": "Detroit", "Name": "Lions", "Abbreviation": "DET"}, "homeTeam": {"ID": "78", "City": "San Francisco", "Name": "49ers", "Abbreviation": "SF"}, "location": "Levi's Stadium"}], "lastUpdatedOn": "2018-09-17 8:57:51 AM"}, {"game": [{"ID": "45972", "date": "2018-09-16", "awayTeam": {"ID": "74", "City": "Oakland", "Name": "Raiders", "Abbreviation": "OAK"}, "homeTeam": {"ID": "72", "City": "Denver", "Name": "Broncos", "Abbreviation": "DEN"}, "location": "Sports Authority Field"}], "lastUpdatedOn": "2018-09-17 9:07:51 AM"}, {"game": [{"ID": "45973", "date": "2018-09-16", "awayTeam": {"ID": "50", "City": "New England", "Name": "Patriots", "Abbreviation": "NE"}, "homeTeam": {"ID": "66", "City": "Jacksonville", "Name": "Jaguars", "Abbreviation": "JAX"}, "location": "EverBank Field"}], "lastUpdatedOn": "2018-09-17 9:32:07 AM"}, {"game": [{"ID": "45974", "date": "2018-09-16", "awayTeam": {"ID": "53", "City": "New York", "Name": "Giants", "Abbreviation": "NYG"}, "homeTeam": {"ID": "52", "City": "Dallas", "Name": "Cowboys", "Abbreviation": "DAL"}, "location": "AT&T Stadium"}], "lastUpdatedOn": "2018-09-17 9:32:12 AM"}, {"game": [{"ID": "45975", "date": "2018-09-17", "awayTeam": {"ID": "79", "City": "Seattle", "Name": "Seahawks", "Abbreviation": "SEA"}, "homeTeam": {"ID": "60", "City": "Chicago", "Name": "Bears", "Abbreviation": "CHI"}, "location": "Soldier Field"}], "lastUpdatedOn": "2018-09-18 12:27:15 AM"}]}, {"feed": {"Name": "Game Lineup", "Abbreviation": "GAME_LINEUP", "Description": "Lists the expected and actual lineup for a game."}, "forGame": [{"game": [{"ID": "45944", "date": "2018-09-06", "awayTeam": {"ID": "68", "City": "Atlanta", "Name": "Falcons", "Abbreviation": "ATL"}, "homeTeam": {"ID": "54", "City": "Philadelphia", "Name": "Eagles", "Abbreviation": "PHI"}, "location": "Lincoln Financial Field"}], "lastUpdatedOn": "2018-09-07 12:01:57 AM"}, {"game": [{"ID": "45945", "date": "2018-09-09", "awayTeam": {"ID": "48", "City": "Buffalo", "Name": "Bills", "Abbreviation": "BUF"}, "homeTeam": {"ID": "56", "City": "Baltimore", "Name": "Ravens", "Abbreviation": "BAL"}, "location": "M&T Bank Stadium"}], "lastUpdatedOn": "2018-09-09 4:24:21 PM"}, {"game": [{"ID": "45946", "date": "2018-09-09", "awayTeam": {"ID": "57", "City": "Cincinnati", "Name": "Bengals", "Abbreviation": "CIN"}, "homeTeam": {"ID": "65", "City": "Indianapolis", "Name": "Colts", "Abbreviation": "IND"}, "location": "Lucas Oil Stadium"}], "lastUpdatedOn": "2018-09-09 4:16:44 PM"}, {"game": [{"ID": "45947", "date": "2018-09-09", "awayTeam": {"ID": "64", "City": "Houston", "Name": "Texans", "Abbreviation": "HOU"}, "homeTeam": {"ID": "50", "City": "New England", "Name": "Patriots", "Abbreviation": "NE"}, "location": "Gillette Stadium"}], "lastUpdatedOn": "2018-09-09 3:54:54 PM"}, {"game": [{"ID": "45948", "date": "2018-09-09", "awayTeam": {"ID": "66", "City": "Jacksonville", "Name": "Jaguars", "Abbreviation": "JAX"}, "homeTeam": {"ID": "53", "City": "New York", "Name": "Giants", "Abbreviation": "NYG"}, "location": "MetLife Stadium"}], "lastUpdatedOn": "2018-09-09 4:08:14 PM"}, {"game": [{"ID": "45949", "date": "2018-09-09", "awayTeam": {"ID": "59", "City": "Pittsburgh", "Name": "Steelers", "Abbreviation": "PIT"}, "homeTeam": {"ID": "58", "City": "Cleveland", "Name": "Browns", "Abbreviation": "CLE"}, "location": "FirstEnergy Stadium"}], "lastUpdatedOn": "2018-09-09 3:36:48 PM"}, {"game": [{"ID": "45950", "date": "2018-09-09", "awayTeam": {"ID": "78", "City": "San Francisco", "Name": "49ers", "Abbreviation": "SF"}, "homeTeam": {"ID": "63", "City": "Minnesota", "Name": "Vikings", "Abbreviation": "MIN"}, "location": "US Bank Stadium"}], "lastUpdatedOn": "2018-09-09 4:04:50 PM"}, {"game": [{"ID": "45951", "date": "2018-09-09", "awayTeam": {"ID": "71", "City": "Tampa Bay", "Name": "Buccaneers", "Abbreviation": "TB"}, "homeTeam": {"ID": "70", "City": "New Orleans", "Name": "Saints", "Abbreviation": "NO"}, "location": "Mercedes-Benz Stadium"}], "lastUpdatedOn": "2018-09-09 3:27:10 PM"}, {"game": [{"ID": "45952", "date": "2018-09-09", "awayTeam": {"ID": "67", "City": "Tennessee", "Name": "Titans", "Abbreviation": "TEN"}, "homeTeam": {"ID": "49", "City": "Miami", "Name": "Dolphins", "Abbreviation": "MIA"}, "location": "Hard Rock Stadium"}], "lastUpdatedOn": "2018-09-09 7:41:59 PM"}, {"game": [{"ID": "45953", "date": "2018-09-09", "awayTeam": {"ID": "73", "City": "Kansas City", "Name": "Chiefs", "Abbreviation": "KC"}, "homeTeam": {"ID": "75", "City": "Los Angeles", "Name": "Chargers", "Abbreviation": "LAC"}, "location": "StubHub Center"}], "lastUpdatedOn": "2018-09-09 6:57:41 PM"}, {"game": [{"ID": "45954", "date": "2018-09-09", "awayTeam": {"ID": "52", "City": "Dallas", "Name": "Cowboys", "Abbreviation": "DAL"}, "homeTeam": {"ID": "69", "City": "Carolina", "Name": "Panthers", "Abbreviation": "CAR"}, "location": "Bank of America Stadium"}], "lastUpdatedOn": "2018-09-09 6:57:20 PM"}, {"game": [{"ID": "45955", "date": "2018-09-09", "awayTeam": {"ID": "79", "City": "Seattle", "Name": "Seahawks", "Abbreviation": "SEA"}, "homeTeam": {"ID": "72", "City": "Denver", "Name": "Broncos", "Abbreviation": "DEN"}, "location": "Sports Authority Field"}], "lastUpdatedOn": "2018-09-09 7:25:46 PM"}, {"game": [{"ID": "45956", "date": "2018-09-09", "awayTeam": {"ID": "55", "City": "Washington", "Name": "Redskins", "Abbreviation": "WAS"}, "homeTeam": {"ID": "76", "City": "Arizona", "Name": "Cardinals", "Abbreviation": "ARI"}, "location": "University of Phoenix Stadium"}], "lastUpdatedOn": "2018-09-09 7:24:02 PM"}, {"game": [{"ID": "45957", "date": "2018-09-09", "awayTeam": {"ID": "60", "City": "Chicago", "Name": "Bears", "Abbreviation": "CHI"}, "homeTeam": {"ID": "62", "City": "Green Bay", "Name": "Packers", "Abbreviation": "GB"}, "location": "Lambeau Field"}], "lastUpdatedOn": "2018-09-09 11:15:58 PM"}, {"game": [{"ID": "45958", "date": "2018-09-10", "awayTeam": {"ID": "51", "City": "New York", "Name": "Jets", "Abbreviation": "NYJ"}, "homeTeam": {"ID": "61", "City": "Detroit", "Name": "Lions", "Abbreviation": "DET"}, "location": "Ford Field"}], "lastUpdatedOn": "2018-09-10 10:18:36 PM"}, {"game": [{"ID": "45959", "date": "2018-09-10", "awayTeam": {"ID": "77", "City": "Los Angeles", "Name": "Rams", "Abbreviation": "LA"}, "homeTeam": {"ID": "74", "City": "Oakland", "Name": "Raiders", "Abbreviation": "OAK"}, "location": "Oakland-Alameda Co. Coliseum"}], "lastUpdatedOn": "2018-09-11 1:29:24 AM"}, {"game": [{"ID": "45960", "date": "2018-09-13", "awayTeam": {"ID": "56", "City": "Baltimore", "Name": "Ravens", "Abbreviation": "BAL"}, "homeTeam": {"ID": "57", "City": "Cincinnati", "Name": "Bengals", "Abbreviation": "CIN"}, "location": "Paul Brown Stadium"}], "lastUpdatedOn": "2018-09-13 11:23:45 PM"}, {"game": [{"ID": "45961", "date": "2018-09-16", "awayTeam": {"ID": "69", "City": "Carolina", "Name": "Panthers", "Abbreviation": "CAR"}, "homeTeam": {"ID": "68", "City": "Atlanta", "Name": "Falcons", "Abbreviation": "ATL"}, "location": "Georgia Dome"}], "lastUpdatedOn": "2018-09-16 4:12:00 PM"}, {"game": [{"ID": "45962", "date": "2018-09-16", "awayTeam": {"ID": "58", "City": "Cleveland", "Name": "Browns", "Abbreviation": "CLE"}, "homeTeam": {"ID": "70", "City": "New Orleans", "Name": "Saints", "Abbreviation": "NO"}, "location": "Mercedes-Benz Stadium"}], "lastUpdatedOn": "2018-09-16 3:42:07 PM"}, {"game": [{"ID": "45963", "date": "2018-09-16", "awayTeam": {"ID": "64", "City": "Houston", "Name": "Texans", "Abbreviation": "HOU"}, "homeTeam": {"ID": "67", "City": "Tennessee", "Name": "Titans", "Abbreviation": "TEN"}, "location": "Nissan Stadium"}], "lastUpdatedOn": "2018-09-16 3:14:44 PM"}, {"game": [{"ID": "45964", "date": "2018-09-16", "awayTeam": {"ID": "65", "City": "Indianapolis", "Name": "Colts", "Abbreviation": "IND"}, "homeTeam": {"ID": "55", "City": "Washington", "Name": "Redskins", "Abbreviation": "WAS"}, "location": "FedEx Field"}], "lastUpdatedOn": "2018-09-16 3:59:34 PM"}, {"game": [{"ID": "45965", "date": "2018-09-16", "awayTeam": {"ID": "73", "City": "Kansas City", "Name": "Chiefs", "Abbreviation": "KC"}, "homeTeam": {"ID": "59", "City": "Pittsburgh", "Name": "Steelers", "Abbreviation": "PIT"}, "location": "Heinz Field"}], "lastUpdatedOn": "2018-09-16 4:26:49 PM"}, {"game": [{"ID": "45966", "date": "2018-09-16", "awayTeam": {"ID": "75", "City": "Los Angeles", "Name": "Chargers", "Abbreviation": "LAC"}, "homeTeam": {"ID": "48", "City": "Buffalo", "Name": "Bills", "Abbreviation": "BUF"}, "location": "New Era Field"}], "lastUpdatedOn": "2018-09-16 4:12:57 PM"}, {"game": [{"ID": "45967", "date": "2018-09-16", "awayTeam": {"ID": "49", "City": "Miami", "Name": "Dolphins", "Abbreviation": "MIA"}, "homeTeam": {"ID": "51", "City": "New York", "Name": "Jets", "Abbreviation": "NYJ"}, "location": "MetLife Stadium"}], "lastUpdatedOn": "2018-09-16 4:15:54 PM"}, {"game": [{"ID": "45968", "date": "2018-09-16", "awayTeam": {"ID": "63", "City": "Minnesota", "Name": "Vikings", "Abbreviation": "MIN"}, "homeTeam": {"ID": "62", "City": "Green Bay", "Name": "Packers", "Abbreviation": "GB"}, "location": "Lambeau Field"}], "lastUpdatedOn": "2018-09-16 4:07:16 PM"}, {"game": [{"ID": "45969", "date": "2018-09-16", "awayTeam": {"ID": "54", "City": "Philadelphia", "Name": "Eagles", "Abbreviation": "PHI"}, "homeTeam": {"ID": "71", "City": "Tampa Bay", "Name": "Buccaneers", "Abbreviation": "TB"}, "location": "Raymond James Stadium"}], "lastUpdatedOn": "2018-09-16 4:06:56 PM"}, {"game": [{"ID": "45970", "date": "2018-09-16", "awayTeam": {"ID": "76", "City": "Arizona", "Name": "Cardinals", "Abbreviation": "ARI"}, "homeTeam": {"ID": "77", "City": "Los Angeles", "Name": "Rams", "Abbreviation": "LA"}, "location": "Los Angeles Memorial Coliseum"}], "lastUpdatedOn": "2018-09-16 6:44:56 PM"}, {"game": [{"ID": "45971", "date": "2018-09-16", "awayTeam": {"ID": "61", "City": "Detroit", "Name": "Lions", "Abbreviation": "DET"}, "homeTeam": {"ID": "78", "City": "San Francisco", "Name": "49ers", "Abbreviation": "SF"}, "location": "Levi's Stadium"}], "lastUpdatedOn": "2018-09-16 7:08:06 PM"}, {"game": [{"ID": "45972", "date": "2018-09-16", "awayTeam": {"ID": "74", "City": "Oakland", "Name": "Raiders", "Abbreviation": "OAK"}, "homeTeam": {"ID": "72", "City": "Denver", "Name": "Broncos", "Abbreviation": "DEN"}, "location": "Sports Authority Field"}], "lastUpdatedOn": "2018-09-16 7:26:06 PM"}, {"game": [{"ID": "45973", "date": "2018-09-16", "awayTeam": {"ID": "50", "City": "New England", "Name": "Patriots", "Abbreviation": "NE"}, "homeTeam": {"ID": "66", "City": "Jacksonville", "Name": "Jaguars", "Abbreviation": "JAX"}, "location": "EverBank Field"}], "lastUpdatedOn": "2018-09-16 7:18:57 PM"}, {"game": [{"ID": "45974", "date": "2018-09-16", "awayTeam": {"ID": "53", "City": "New York", "Name": "Giants", "Abbreviation": "NYG"}, "homeTeam": {"ID": "52", "City": "Dallas", "Name": "Cowboys", "Abbreviation": "DAL"}, "location": "AT&T Stadium"}], "lastUpdatedOn": "2018-09-16 11:10:54 PM"}, {"game": [{"ID": "45975", "date": "2018-09-17", "awayTeam": {"ID": "79", "City": "Seattle", "Name": "Seahawks", "Abbreviation": "SEA"}, "homeTeam": {"ID": "60", "City": "Chicago", "Name": "Bears", "Abbreviation": "CHI"}, "location": "Soldier Field"}], "lastUpdatedOn": "2018-09-17 11:11:08 PM"}]}, {"feed": {"Name": "Current Season", "Abbreviation": "CURRENT_SEASON", "Description": "Returns the current season and supported stats, for a given date."}, "forDate": {"lastUpdatedOn": null}}, {"feed": {"Name": "Player Injuries", "Abbreviation": "INJURIES", "Description": "A list of all currently injured players."}, "lastUpdatedOn": "2018-09-19 7:54:44 AM"}, {"feed": {"Name": "Latest Updates", "Abbreviation": "LATEST_UPDATES", "Description": "Lists all the latest update timestamps for each feed."}, "lastUpdatedOn": "2018-09-19 7:54:39 AM"}, {"feed": {"Name": "Seasonal Team Stats", "Abbreviation": "SEASONAL_TEAM_STATS", "Description": "Lists each team along with their seasonal stats totals on a given day."}, "forDate": [{"forDate": "2018-09-06", "lastUpdatedOn": "2018-09-13 2:11:04 PM"}, {"forDate": "2018-09-09", "lastUpdatedOn": "2018-09-13 4:23:16 PM"}, {"forDate": "2018-09-10", "lastUpdatedOn": "2018-09-13 4:31:05 PM"}, {"forDate": "2018-09-13", "lastUpdatedOn": "2018-09-14 12:59:30 AM"}, {"forDate": "2018-09-16", "lastUpdatedOn": "2018-09-17 9:32:11 AM"}, {"forDate": "2018-09-17", "lastUpdatedOn": "2018-09-18 12:27:45 AM"}]}, {"feed": {"Name": "Seasonal Player Stats", "Abbreviation": "SEASONAL_PLAYER_STATS", "Description": "Lists each player along with their seasonal stats totals on a given day."}, "forDate": [{"forDate": "2018-09-06", "lastUpdatedOn": "2018-09-13 2:11:03 PM"}, {"forDate": "2018-09-06", "lastUpdatedOn": "2018-09-19 7:54:40 AM"}, {"forDate": "2018-09-09", "lastUpdatedOn": "2018-09-13 4:23:15 PM"}, {"forDate": "2018-09-10", "lastUpdatedOn": "2018-09-13 4:31:05 PM"}, {"forDate": "2018-09-13", "lastUpdatedOn": "2018-09-14 12:59:30 AM"}, {"forDate": "2018-09-16", "lastUpdatedOn": "2018-09-17 9:32:10 AM"}, {"forDate": "2018-09-17", "lastUpdatedOn": "2018-09-18 12:27:45 AM"}]}, {"feed": {"Name": "Seasonal Venues", "Abbreviation": "SEASONAL_VENUES", "Description": "Lists all venues used in a league's specific season."}, "lastUpdatedOn": null}, {"feed": {"Name": "Players", "Abbreviation": "PLAYERS", "Description": "Lists all players for a league on a given date, with full bio and other details."}, "forDate": {"forDate": "2018-09-06", "lastUpdatedOn": "2018-09-19 7:54:43 AM"}}, {"feed": {"Name": "Seasonal Standings", "Abbreviation": "SEASONAL_STANDINGS", "Description": "Lists all teams along with their stats and overall/conf/div/playoff rankings, on a given day."}, "forDate": [{"forDate": "2018-09-06", "lastUpdatedOn": "2018-09-13 2:11:01 PM"}, {"forDate": "2018-09-09", "lastUpdatedOn": "2018-09-13 4:23:14 PM"}, {"forDate": "2018-09-10", "lastUpdatedOn": "2018-09-13 4:31:03 PM"}, {"forDate": "2018-09-13", "lastUpdatedOn": "2018-09-14 12:59:29 AM"}, {"forDate": "2018-09-16", "lastUpdatedOn": "2018-09-17 9:32:08 AM"}, {"forDate": "2018-09-17", "lastUpdatedOn": "2018-09-18 12:27:44 AM"}]}, {"feed": {"Name": "Full Game Schedule", "Abbreviation": "FULL_GAME_SCHEDULE", "Description": "A list of all games to be played for the entire season."}, "lastUpdatedOn": "2018-09-18 12:27:44 AM"}, {"feed": {"Name": "Full Game Schedule", "Abbreviation": "FULL_GAME_SCHEDULE", "Description": "A list of all games to be played for the entire season."}, "lastUpdatedOn": "2018-09-18 12:27:44 AM"}, {"feed": {"Name": "Full Game Schedule", "Abbreviation": "FULL_GAME_SCHEDULE", "Description": "A list of all games to be played for the entire season."}, "lastUpdatedOn": null}, {"feed": {"Name": "Daily Game Schedule", "Abbreviation": "DAILY_GAME_SCHEDULE", "Description": "A list of games to be played for a given day."}, "forDate": [{"forDate": "2018-09-06", "lastUpdatedOn": "2018-09-13 2:11:00 PM"}, {"forDate": "2018-09-09", "lastUpdatedOn": "2018-09-13 4:23:14 PM"}, {"forDate": "2018-09-10", "lastUpdatedOn": "2018-09-13 4:31:03 PM"}, {"forDate": "2018-09-13", "lastUpdatedOn": "2018-09-14 12:59:28 AM"}, {"forDate": "2018-09-16", "lastUpdatedOn": "2018-09-17 9:32:07 AM"}, {"forDate": "2018-09-17", "lastUpdatedOn": "2018-09-18 12:27:44 AM"}]}, {"feed": {"Name": "Daily Game Schedule", "Abbreviation": "DAILY_GAME_SCHEDULE", "Description": "A list of games to be played for a given day."}, "forDate": [{"forDate": "2018-09-06", "lastUpdatedOn": "2018-09-13 2:11:00 PM"}, {"forDate": "2018-09-09", "lastUpdatedOn": "2018-09-19 6:55:13 PM"}, {"forDate": "2018-09-10", "lastUpdatedOn": "2018-09-13 4:31:03 PM"}, {"forDate": "2018-09-13", "lastUpdatedOn": "2018-09-14 12:59:28 AM"}, {"forDate": "2018-09-16", "lastUpdatedOn": "2018-09-17 9:32:07 AM"}, {"forDate": "2018-09-17", "lastUpdatedOn": "2018-09-18 12:27:44 AM"}]}, {"feed": {"Name": "Daily Game Schedule", "Abbreviation": "DAILY_GAME_SCHEDULE", "Description": "A list of games to be played for a given day."}, "forDate": {"lastUpdatedOn": null}}, {"feed": {"Name": "Daily Player Stats", "Abbreviation": "DAILY_PLAYER_STATS", "Description": "A list of player stats totals for those players who particpated in games on a given day."}, "forDate": [{"forDate": "2018-09-06", "lastUpdatedOn": "2018-09-13 2:10:57 PM"}, {"forDate": "2018-09-09", "lastUpdatedOn": "2018-09-13 4:23:13 PM"}, {"forDate": "2018-09-10", "lastUpdatedOn": "2018-09-13 4:31:02 PM"}, {"forDate": "2018-09-13", "lastUpdatedOn": "2018-09-14 12:59:26 AM"}, {"forDate": "2018-09-16", "lastUpdatedOn": "2018-09-17 9:32:06 AM"}, {"forDate": "2018-09-17", "lastUpdatedOn": "2018-09-18 12:27:06 AM"}]}, {"feed": {"Name": "Daily Player Stats", "Abbreviation": "DAILY_PLAYER_STATS", "Description": "A list of player stats totals for those players who particpated in games on a given day."}, "forDate": {"lastUpdatedOn": null}}, {"feed": {"Name": "Daily Player Stats", "Abbreviation": "DAILY_PLAYER_STATS", "Description": "A list of player stats totals for those players who particpated in games on a given day."}, "forDate": {"lastUpdatedOn": null}}, {"feed": {"Name": "Game BoxScore", "Abbreviation": "GAME_BOXSCORE", "Description": "A boxscore of scoring plays and player stats, for a game."}, "forGame": [{"game": [{"ID": "45944", "date": "2018-09-06", "awayTeam": {"ID": "68", "City": "Atlanta", "Name": "Falcons", "Abbreviation": "ATL"}, "homeTeam": {"ID": "54", "City": "Philadelphia", "Name": "Eagles", "Abbreviation": "PHI"}, "location": "Lincoln Financial Field"}], "lastUpdatedOn": "2018-09-13 2:10:58 PM"}, {"game": [{"ID": "45945", "date": "2018-09-09", "awayTeam": {"ID": "48", "City": "Buffalo", "Name": "Bills", "Abbreviation": "BUF"}, "homeTeam": {"ID": "56", "City": "Baltimore", "Name": "Ravens", "Abbreviation": "BAL"}, "location": "M&T Bank Stadium"}], "lastUpdatedOn": "2018-09-13 1:36:54 PM"}, {"game": [{"ID": "45946", "date": "2018-09-09", "awayTeam": {"ID": "57", "City": "Cincinnati", "Name": "Bengals", "Abbreviation": "CIN"}, "homeTeam": {"ID": "65", "City": "Indianapolis", "Name": "Colts", "Abbreviation": "IND"}, "location": "Lucas Oil Stadium"}], "lastUpdatedOn": "2018-09-13 2:26:55 PM"}, {"game": [{"ID": "45947", "date": "2018-09-09", "awayTeam": {"ID": "64", "City": "Houston", "Name": "Texans", "Abbreviation": "HOU"}, "homeTeam": {"ID": "50", "City": "New England", "Name": "Patriots", "Abbreviation": "NE"}, "location": "Gillette Stadium"}], "lastUpdatedOn": "2018-09-13 2:52:54 PM"}, {"game": [{"ID": "45948", "date": "2018-09-09", "awayTeam": {"ID": "66", "City": "Jacksonville", "Name": "Jaguars", "Abbreviation": "JAX"}, "homeTeam": {"ID": "53", "City": "New York", "Name": "Giants", "Abbreviation": "NYG"}, "location": "MetLife Stadium"}], "lastUpdatedOn": "2018-09-13 2:53:08 PM"}, {"game": [{"ID": "45949", "date": "2018-09-09", "awayTeam": {"ID": "59", "City": "Pittsburgh", "Name": "Steelers", "Abbreviation": "PIT"}, "homeTeam": {"ID": "58", "City": "Cleveland", "Name": "Browns", "Abbreviation": "CLE"}, "location": "FirstEnergy Stadium"}], "lastUpdatedOn": "2018-09-13 2:53:15 PM"}, {"game": [{"ID": "45950", "date": "2018-09-09", "awayTeam": {"ID": "78", "City": "San Francisco", "Name": "49ers", "Abbreviation": "SF"}, "homeTeam": {"ID": "63", "City": "Minnesota", "Name": "Vikings", "Abbreviation": "MIN"}, "location": "US Bank Stadium"}], "lastUpdatedOn": "2018-09-13 2:53:17 PM"}, {"game": [{"ID": "45951", "date": "2018-09-09", "awayTeam": {"ID": "71", "City": "Tampa Bay", "Name": "Buccaneers", "Abbreviation": "TB"}, "homeTeam": {"ID": "70", "City": "New Orleans", "Name": "Saints", "Abbreviation": "NO"}, "location": "Mercedes-Benz Stadium"}], "lastUpdatedOn": "2018-09-13 3:00:54 PM"}, {"game": [{"ID": "45952", "date": "2018-09-09", "awayTeam": {"ID": "67", "City": "Tennessee", "Name": "Titans", "Abbreviation": "TEN"}, "homeTeam": {"ID": "49", "City": "Miami", "Name": "Dolphins", "Abbreviation": "MIA"}, "location": "Hard Rock Stadium"}], "lastUpdatedOn": "2018-09-13 3:08:54 PM"}, {"game": [{"ID": "45953", "date": "2018-09-09", "awayTeam": {"ID": "73", "City": "Kansas City", "Name": "Chiefs", "Abbreviation": "KC"}, "homeTeam": {"ID": "75", "City": "Los Angeles", "Name": "Chargers", "Abbreviation": "LAC"}, "location": "StubHub Center"}], "lastUpdatedOn": "2018-09-13 3:19:13 PM"}, {"game": [{"ID": "45954", "date": "2018-09-09", "awayTeam": {"ID": "52", "City": "Dallas", "Name": "Cowboys", "Abbreviation": "DAL"}, "homeTeam": {"ID": "69", "City": "Carolina", "Name": "Panthers", "Abbreviation": "CAR"}, "location": "Bank of America Stadium"}], "lastUpdatedOn": "2018-09-13 4:09:04 PM"}, {"game": [{"ID": "45955", "date": "2018-09-09", "awayTeam": {"ID": "79", "City": "Seattle", "Name": "Seahawks", "Abbreviation": "SEA"}, "homeTeam": {"ID": "72", "City": "Denver", "Name": "Broncos", "Abbreviation": "DEN"}, "location": "Sports Authority Field"}], "lastUpdatedOn": "2018-09-13 4:09:11 PM"}, {"game": [{"ID": "45956", "date": "2018-09-09", "awayTeam": {"ID": "55", "City": "Washington", "Name": "Redskins", "Abbreviation": "WAS"}, "homeTeam": {"ID": "76", "City": "Arizona", "Name": "Cardinals", "Abbreviation": "ARI"}, "location": "University of Phoenix Stadium"}], "lastUpdatedOn": "2018-09-13 4:09:13 PM"}, {"game": [{"ID": "45957", "date": "2018-09-09", "awayTeam": {"ID": "60", "City": "Chicago", "Name": "Bears", "Abbreviation": "CHI"}, "homeTeam": {"ID": "62", "City": "Green Bay", "Name": "Packers", "Abbreviation": "GB"}, "location": "Lambeau Field"}], "lastUpdatedOn": "2018-09-13 4:23:13 PM"}, {"game": [{"ID": "45958", "date": "2018-09-10", "awayTeam": {"ID": "51", "City": "New York", "Name": "Jets", "Abbreviation": "NYJ"}, "homeTeam": {"ID": "61", "City": "Detroit", "Name": "Lions", "Abbreviation": "DET"}, "location": "Ford Field"}], "lastUpdatedOn": "2018-09-13 4:23:17 PM"}, {"game": [{"ID": "45959", "date": "2018-09-10", "awayTeam": {"ID": "77", "City": "Los Angeles", "Name": "Rams", "Abbreviation": "LA"}, "homeTeam": {"ID": "74", "City": "Oakland", "Name": "Raiders", "Abbreviation": "OAK"}, "location": "Oakland-Alameda Co. Coliseum"}], "lastUpdatedOn": "2018-09-13 4:31:02 PM"}, {"game": [{"ID": "45960", "date": "2018-09-13", "awayTeam": {"ID": "56", "City": "Baltimore", "Name": "Ravens", "Abbreviation": "BAL"}, "homeTeam": {"ID": "57", "City": "Cincinnati", "Name": "Bengals", "Abbreviation": "CIN"}, "location": "Paul Brown Stadium"}], "lastUpdatedOn": "2018-09-14 12:59:26 AM"}, {"game": [{"ID": "45961", "date": "2018-09-16", "awayTeam": {"ID": "69", "City": "Carolina", "Name": "Panthers", "Abbreviation": "CAR"}, "homeTeam": {"ID": "68", "City": "Atlanta", "Name": "Falcons", "Abbreviation": "ATL"}, "location": "Georgia Dome"}], "lastUpdatedOn": "2018-09-16 6:55:41 PM"}, {"game": [{"ID": "45962", "date": "2018-09-16", "awayTeam": {"ID": "58", "City": "Cleveland", "Name": "Browns", "Abbreviation": "CLE"}, "homeTeam": {"ID": "70", "City": "New Orleans", "Name": "Saints", "Abbreviation": "NO"}, "location": "Mercedes-Benz Stadium"}], "lastUpdatedOn": "2018-09-16 6:57:11 PM"}, {"game": [{"ID": "45963", "date": "2018-09-16", "awayTeam": {"ID": "64", "City": "Houston", "Name": "Texans", "Abbreviation": "HOU"}, "homeTeam": {"ID": "67", "City": "Tennessee", "Name": "Titans", "Abbreviation": "TEN"}, "location": "Nissan Stadium"}], "lastUpdatedOn": "2018-09-16 6:59:52 PM"}, {"game": [{"ID": "45964", "date": "2018-09-16", "awayTeam": {"ID": "65", "City": "Indianapolis", "Name": "Colts", "Abbreviation": "IND"}, "homeTeam": {"ID": "55", "City": "Washington", "Name": "Redskins", "Abbreviation": "WAS"}, "location": "FedEx Field"}], "lastUpdatedOn": "2018-09-16 7:07:36 PM"}, {"game": [{"ID": "45965", "date": "2018-09-16", "awayTeam": {"ID": "73", "City": "Kansas City", "Name": "Chiefs", "Abbreviation": "KC"}, "homeTeam": {"ID": "59", "City": "Pittsburgh", "Name": "Steelers", "Abbreviation": "PIT"}, "location": "Heinz Field"}], "lastUpdatedOn": "2018-09-16 7:31:21 PM"}, {"game": [{"ID": "45966", "date": "2018-09-16", "awayTeam": {"ID": "75", "City": "Los Angeles", "Name": "Chargers", "Abbreviation": "LAC"}, "homeTeam": {"ID": "48", "City": "Buffalo", "Name": "Bills", "Abbreviation": "BUF"}, "location": "New Era Field"}], "lastUpdatedOn": "2018-09-16 7:37:21 PM"}, {"game": [{"ID": "45967", "date": "2018-09-16", "awayTeam": {"ID": "49", "City": "Miami", "Name": "Dolphins", "Abbreviation": "MIA"}, "homeTeam": {"ID": "51", "City": "New York", "Name": "Jets", "Abbreviation": "NYJ"}, "location": "MetLife Stadium"}], "lastUpdatedOn": "2018-09-16 7:49:21 PM"}, {"game": [{"ID": "45968", "date": "2018-09-16", "awayTeam": {"ID": "63", "City": "Minnesota", "Name": "Vikings", "Abbreviation": "MIN"}, "homeTeam": {"ID": "62", "City": "Green Bay", "Name": "Packers", "Abbreviation": "GB"}, "location": "Lambeau Field"}], "lastUpdatedOn": "2018-09-16 7:49:26 PM"}, {"game": [{"ID": "45969", "date": "2018-09-16", "awayTeam": {"ID": "54", "City": "Philadelphia", "Name": "Eagles", "Abbreviation": "PHI"}, "homeTeam": {"ID": "71", "City": "Tampa Bay", "Name": "Buccaneers", "Abbreviation": "TB"}, "location": "Raymond James Stadium"}], "lastUpdatedOn": "2018-09-16 8:01:21 PM"}, {"game": [{"ID": "45970", "date": "2018-09-16", "awayTeam": {"ID": "76", "City": "Arizona", "Name": "Cardinals", "Abbreviation": "ARI"}, "homeTeam": {"ID": "77", "City": "Los Angeles", "Name": "Rams", "Abbreviation": "LA"}, "location": "Los Angeles Memorial Coliseum"}], "lastUpdatedOn": "2018-09-16 8:01:25 PM"}, {"game": [{"ID": "45971", "date": "2018-09-16", "awayTeam": {"ID": "61", "City": "Detroit", "Name": "Lions", "Abbreviation": "DET"}, "homeTeam": {"ID": "78", "City": "San Francisco", "Name": "49ers", "Abbreviation": "SF"}, "location": "Levi's Stadium"}], "lastUpdatedOn": "2018-09-17 8:57:51 AM"}, {"game": [{"ID": "45972", "date": "2018-09-16", "awayTeam": {"ID": "74", "City": "Oakland", "Name": "Raiders", "Abbreviation": "OAK"}, "homeTeam": {"ID": "72", "City": "Denver", "Name": "Broncos", "Abbreviation": "DEN"}, "location": "Sports Authority Field"}], "lastUpdatedOn": "2018-09-17 9:07:51 AM"}, {"game": [{"ID": "45973", "date": "2018-09-16", "awayTeam": {"ID": "50", "City": "New England", "Name": "Patriots", "Abbreviation": "NE"}, "homeTeam": {"ID": "66", "City": "Jacksonville", "Name": "Jaguars", "Abbreviation": "JAX"}, "location": "EverBank Field"}], "lastUpdatedOn": "2018-09-17 9:32:07 AM"}, {"game": [{"ID": "45974", "date": "2018-09-16", "awayTeam": {"ID": "53", "City": "New York", "Name": "Giants", "Abbreviation": "NYG"}, "homeTeam": {"ID": "52", "City": "Dallas", "Name": "Cowboys", "Abbreviation": "DAL"}, "location": "AT&T Stadium"}], "lastUpdatedOn": "2018-09-17 9:32:11 AM"}, {"game": [{"ID": "45975", "date": "2018-09-17", "awayTeam": {"ID": "79", "City": "Seattle", "Name": "Seahawks", "Abbreviation": "SEA"}, "homeTeam": {"ID": "60", "City": "Chicago", "Name": "Bears", "Abbreviation": "CHI"}, "location": "Soldier Field"}], "lastUpdatedOn": "2018-09-18 12:27:06 AM"}]}, {"feed": {"Name": "Game Play-by-Play", "Abbreviation": "GAME_PLAYBYPLAY", "Description": "All plays that have occurred for a game."}, "forGame": [{"game": [{"ID": "45944", "date": "2018-09-06", "awayTeam": {"ID": "68", "City": "Atlanta", "Name": "Falcons", "Abbreviation": "ATL"}, "homeTeam": {"ID": "54", "City": "Philadelphia", "Name": "Eagles", "Abbreviation": "PHI"}, "location": "Lincoln Financial Field"}], "lastUpdatedOn": "2018-09-13 2:10:59 PM"}, {"game": [{"ID": "45945", "date": "2018-09-09", "awayTeam": {"ID": "48", "City": "Buffalo", "Name": "Bills", "Abbreviation": "BUF"}, "homeTeam": {"ID": "56", "City": "Baltimore", "Name": "Ravens", "Abbreviation": "BAL"}, "location": "M&T Bank Stadium"}], "lastUpdatedOn": "2018-09-13 1:36:55 PM"}, {"game": [{"ID": "45946", "date": "2018-09-09", "awayTeam": {"ID": "57", "City": "Cincinnati", "Name": "Bengals", "Abbreviation": "CIN"}, "homeTeam": {"ID": "65", "City": "Indianapolis", "Name": "Colts", "Abbreviation": "IND"}, "location": "Lucas Oil Stadium"}], "lastUpdatedOn": "2018-09-13 2:26:55 PM"}, {"game": [{"ID": "45947", "date": "2018-09-09", "awayTeam": {"ID": "64", "City": "Houston", "Name": "Texans", "Abbreviation": "HOU"}, "homeTeam": {"ID": "50", "City": "New England", "Name": "Patriots", "Abbreviation": "NE"}, "location": "Gillette Stadium"}], "lastUpdatedOn": "2018-09-13 2:52:54 PM"}, {"game": [{"ID": "45948", "date": "2018-09-09", "awayTeam": {"ID": "66", "City": "Jacksonville", "Name": "Jaguars", "Abbreviation": "JAX"}, "homeTeam": {"ID": "53", "City": "New York", "Name": "Giants", "Abbreviation": "NYG"}, "location": "MetLife Stadium"}], "lastUpdatedOn": "2018-09-13 2:53:08 PM"}, {"game": [{"ID": "45949", "date": "2018-09-09", "awayTeam": {"ID": "59", "City": "Pittsburgh", "Name": "Steelers", "Abbreviation": "PIT"}, "homeTeam": {"ID": "58", "City": "Cleveland", "Name": "Browns", "Abbreviation": "CLE"}, "location": "FirstEnergy Stadium"}], "lastUpdatedOn": "2018-09-13 2:53:15 PM"}, {"game": [{"ID": "45950", "date": "2018-09-09", "awayTeam": {"ID": "78", "City": "San Francisco", "Name": "49ers", "Abbreviation": "SF"}, "homeTeam": {"ID": "63", "City": "Minnesota", "Name": "Vikings", "Abbreviation": "MIN"}, "location": "US Bank Stadium"}], "lastUpdatedOn": "2018-09-13 2:53:17 PM"}, {"game": [{"ID": "45951", "date": "2018-09-09", "awayTeam": {"ID": "71", "City": "Tampa Bay", "Name": "Buccaneers", "Abbreviation": "TB"}, "homeTeam": {"ID": "70", "City": "New Orleans", "Name": "Saints", "Abbreviation": "NO"}, "location": "Mercedes-Benz Stadium"}], "lastUpdatedOn": "2018-09-13 3:00:54 PM"}, {"game": [{"ID": "45952", "date": "2018-09-09", "awayTeam": {"ID": "67", "City": "Tennessee", "Name": "Titans", "Abbreviation": "TEN"}, "homeTeam": {"ID": "49", "City": "Miami", "Name": "Dolphins", "Abbreviation": "MIA"}, "location": "Hard Rock Stadium"}], "lastUpdatedOn": "2018-09-13 3:08:55 PM"}, {"game": [{"ID": "45953", "date": "2018-09-09", "awayTeam": {"ID": "73", "City": "Kansas City", "Name": "Chiefs", "Abbreviation": "KC"}, "homeTeam": {"ID": "75", "City": "Los Angeles", "Name": "Chargers", "Abbreviation": "LAC"}, "location": "StubHub Center"}], "lastUpdatedOn": "2018-09-13 3:19:14 PM"}, {"game": [{"ID": "45954", "date": "2018-09-09", "awayTeam": {"ID": "52", "City": "Dallas", "Name": "Cowboys", "Abbreviation": "DAL"}, "homeTeam": {"ID": "69", "City": "Carolina", "Name": "Panthers", "Abbreviation": "CAR"}, "location": "Bank of America Stadium"}], "lastUpdatedOn": "2018-09-13 4:09:05 PM"}, {"game": [{"ID": "45955", "date": "2018-09-09", "awayTeam": {"ID": "79", "City": "Seattle", "Name": "Seahawks", "Abbreviation": "SEA"}, "homeTeam": {"ID": "72", "City": "Denver", "Name": "Broncos", "Abbreviation": "DEN"}, "location": "Sports Authority Field"}], "lastUpdatedOn": "2018-09-13 4:09:12 PM"}, {"game": [{"ID": "45956", "date": "2018-09-09", "awayTeam": {"ID": "55", "City": "Washington", "Name": "Redskins", "Abbreviation": "WAS"}, "homeTeam": {"ID": "76", "City": "Arizona", "Name": "Cardinals", "Abbreviation": "ARI"}, "location": "University of Phoenix Stadium"}], "lastUpdatedOn": "2018-09-13 4:09:14 PM"}, {"game": [{"ID": "45957", "date": "2018-09-09", "awayTeam": {"ID": "60", "City": "Chicago", "Name": "Bears", "Abbreviation": "CHI"}, "homeTeam": {"ID": "62", "City": "Green Bay", "Name": "Packers", "Abbreviation": "GB"}, "location": "Lambeau Field"}], "lastUpdatedOn": "2018-09-13 4:23:13 PM"}, {"game": [{"ID": "45958", "date": "2018-09-10", "awayTeam": {"ID": "51", "City": "New York", "Name": "Jets", "Abbreviation": "NYJ"}, "homeTeam": {"ID": "61", "City": "Detroit", "Name": "Lions", "Abbreviation": "DET"}, "location": "Ford Field"}], "lastUpdatedOn": "2018-09-13 4:23:18 PM"}, {"game": [{"ID": "45959", "date": "2018-09-10", "awayTeam": {"ID": "77", "City": "Los Angeles", "Name": "Rams", "Abbreviation": "LA"}, "homeTeam": {"ID": "74", "City": "Oakland", "Name": "Raiders", "Abbreviation": "OAK"}, "location": "Oakland-Alameda Co. Coliseum"}], "lastUpdatedOn": "2018-09-13 4:31:02 PM"}, {"game": [{"ID": "45960", "date": "2018-09-13", "awayTeam": {"ID": "56", "City": "Baltimore", "Name": "Ravens", "Abbreviation": "BAL"}, "homeTeam": {"ID": "57", "City": "Cincinnati", "Name": "Bengals", "Abbreviation": "CIN"}, "location": "Paul Brown Stadium"}], "lastUpdatedOn": "2018-09-14 12:59:26 AM"}, {"game": [{"ID": "45961", "date": "2018-09-16", "awayTeam": {"ID": "69", "City": "Carolina", "Name": "Panthers", "Abbreviation": "CAR"}, "homeTeam": {"ID": "68", "City": "Atlanta", "Name": "Falcons", "Abbreviation": "ATL"}, "location": "Georgia Dome"}], "lastUpdatedOn": "2018-09-16 6:55:44 PM"}, {"game": [{"ID": "45962", "date": "2018-09-16", "awayTeam": {"ID": "58", "City": "Cleveland", "Name": "Browns", "Abbreviation": "CLE"}, "homeTeam": {"ID": "70", "City": "New Orleans", "Name": "Saints", "Abbreviation": "NO"}, "location": "Mercedes-Benz Stadium"}], "lastUpdatedOn": "2018-09-16 6:57:12 PM"}, {"game": [{"ID": "45963", "date": "2018-09-16", "awayTeam": {"ID": "64", "City": "Houston", "Name": "Texans", "Abbreviation": "HOU"}, "homeTeam": {"ID": "67", "City": "Tennessee", "Name": "Titans", "Abbreviation": "TEN"}, "location": "Nissan Stadium"}], "lastUpdatedOn": "2018-09-16 6:59:55 PM"}, {"game": [{"ID": "45964", "date": "2018-09-16", "awayTeam": {"ID": "65", "City": "Indianapolis", "Name": "Colts", "Abbreviation": "IND"}, "homeTeam": {"ID": "55", "City": "Washington", "Name": "Redskins", "Abbreviation": "WAS"}, "location": "FedEx Field"}], "lastUpdatedOn": "2018-09-16 7:07:37 PM"}, {"game": [{"ID": "45965", "date": "2018-09-16", "awayTeam": {"ID": "73", "City": "Kansas City", "Name": "Chiefs", "Abbreviation": "KC"}, "homeTeam": {"ID": "59", "City": "Pittsburgh", "Name": "Steelers", "Abbreviation": "PIT"}, "location": "Heinz Field"}], "lastUpdatedOn": "2018-09-16 7:31:21 PM"}, {"game": [{"ID": "45966", "date": "2018-09-16", "awayTeam": {"ID": "75", "City": "Los Angeles", "Name": "Chargers", "Abbreviation": "LAC"}, "homeTeam": {"ID": "48", "City": "Buffalo", "Name": "Bills", "Abbreviation": "BUF"}, "location": "New Era Field"}], "lastUpdatedOn": "2018-09-16 7:37:21 PM"}, {"game": [{"ID": "45967", "date": "2018-09-16", "awayTeam": {"ID": "49", "City": "Miami", "Name": "Dolphins", "Abbreviation": "MIA"}, "homeTeam": {"ID": "51", "City": "New York", "Name": "Jets", "Abbreviation": "NYJ"}, "location": "MetLife Stadium"}], "lastUpdatedOn": "2018-09-16 7:49:21 PM"}, {"game": [{"ID": "45968", "date": "2018-09-16", "awayTeam": {"ID": "63", "City": "Minnesota", "Name": "Vikings", "Abbreviation": "MIN"}, "homeTeam": {"ID": "62", "City": "Green Bay", "Name": "Packers", "Abbreviation": "GB"}, "location": "Lambeau Field"}], "lastUpdatedOn": "2018-09-16 7:49:27 PM"}, {"game": [{"ID": "45969", "date": "2018-09-16", "awayTeam": {"ID": "54", "City": "Philadelphia", "Name": "Eagles", "Abbreviation": "PHI"}, "homeTeam": {"ID": "71", "City": "Tampa Bay", "Name": "Buccaneers", "Abbreviation": "TB"}, "location": "Raymond James Stadium"}], "lastUpdatedOn": "2018-09-16 8:01:21 PM"}, {"game": [{"ID": "45970", "date": "2018-09-16", "awayTeam": {"ID": "76", "City": "Arizona", "Name": "Cardinals", "Abbreviation": "ARI"}, "homeTeam": {"ID": "77", "City": "Los Angeles", "Name": "Rams", "Abbreviation": "LA"}, "location": "Los Angeles Memorial Coliseum"}], "lastUpdatedOn": "2018-09-16 8:01:26 PM"}, {"game": [{"ID": "45971", "date": "2018-09-16", "awayTeam": {"ID": "61", "City": "Detroit", "Name": "Lions", "Abbreviation": "DET"}, "homeTeam": {"ID": "78", "City": "San Francisco", "Name": "49ers", "Abbreviation": "SF"}, "location": "Levi's Stadium"}], "lastUpdatedOn": "2018-09-17 8:57:51 AM"}, {"game": [{"ID": "45972", "date": "2018-09-16", "awayTeam": {"ID": "74", "City": "Oakland", "Name": "Raiders", "Abbreviation": "OAK"}, "homeTeam": {"ID": "72", "City": "Denver", "Name": "Broncos", "Abbreviation": "DEN"}, "location": "Sports Authority Field"}], "lastUpdatedOn": "2018-09-17 9:07:51 AM"}, {"game": [{"ID": "45973", "date": "2018-09-16", "awayTeam": {"ID": "50", "City": "New England", "Name": "Patriots", "Abbreviation": "NE"}, "homeTeam": {"ID": "66", "City": "Jacksonville", "Name": "Jaguars", "Abbreviation": "JAX"}, "location": "EverBank Field"}], "lastUpdatedOn": "2018-09-17 9:32:07 AM"}, {"game": [{"ID": "45974", "date": "2018-09-16", "awayTeam": {"ID": "53", "City": "New York", "Name": "Giants", "Abbreviation": "NYG"}, "homeTeam": {"ID": "52", "City": "Dallas", "Name": "Cowboys", "Abbreviation": "DAL"}, "location": "AT&T Stadium"}], "lastUpdatedOn": "2018-09-17 9:32:12 AM"}, {"game": [{"ID": "45975", "date": "2018-09-17", "awayTeam": {"ID": "79", "City": "Seattle", "Name": "Seahawks", "Abbreviation": "SEA"}, "homeTeam": {"ID": "60", "City": "Chicago", "Name": "Bears", "Abbreviation": "CHI"}, "location": "Soldier Field"}], "lastUpdatedOn": "2018-09-18 12:27:14 AM"}]}, {"feed": {"Name": "Scoreboard", "Abbreviation": "SCOREBOARD", "Description": "Scores and status for all games on a given day."}, "forDate": [{"forDate": "2018-09-06", "lastUpdatedOn": "2018-09-13 2:10:59 PM"}, {"forDate": "2018-09-09", "lastUpdatedOn": "2018-09-13 4:23:13 PM"}, {"forDate": "2018-09-10", "lastUpdatedOn": "2018-09-13 4:31:02 PM"}, {"forDate": "2018-09-13", "lastUpdatedOn": "2018-09-14 12:59:26 AM"}, {"forDate": "2018-09-16", "lastUpdatedOn": "2018-09-17 9:32:07 AM"}, {"forDate": "2018-09-17", "lastUpdatedOn": "2018-09-18 12:27:11 AM"}]}, {"feed": {"Name": "Game BoxScore", "Abbreviation": "GAME_BOXSCORE", "Description": "A boxscore of scoring plays and player stats, for a game."}}, {"feed": {"Name": "Game Play-by-Play", "Abbreviation": "GAME_PLAYBYPLAY", "Description": "All plays that have occurred for a game."}}, {"feed": {"Name": "Scoreboard", "Abbreviation": "SCOREBOARD", "Description": "Scores and status for all games on a given day."}, "forDate": [{"forDate": "2018-09-06", "lastUpdatedOn": "2018-09-13 2:10:59 PM"}, {"forDate": "2018-09-09", "lastUpdatedOn": "2018-09-13 4:23:13 PM"}, {"forDate": "2018-09-10", "lastUpdatedOn": "2018-09-13 4:31:02 PM"}, {"forDate": "2018-09-13", "lastUpdatedOn": "2018-09-14 12:59:26 AM"}, {"forDate": "2018-09-16", "lastUpdatedOn": "2018-09-17 9:32:07 AM"}, {"forDate": "2018-09-17", "lastUpdatedOn": "2018-09-18 12:27:14 AM"}]}, {"feed": {"Name": "Game BoxScore", "Abbreviation": "GAME_BOXSCORE", "Description": "A boxscore of scoring plays and player stats, for a game."}}, {"feed": {"Name": "Game Play-by-Play", "Abbreviation": "GAME_PLAYBYPLAY", "Description": "All plays that have occurred for a game."}}, {"feed": {"Name": "Scoreboard", "Abbreviation": "SCOREBOARD", "Description": "Scores and status for all games on a given day."}, "forDate": {"lastUpdatedOn": null}}, {"feed": {"Name": "Roster Players", "Abbreviation": "ROSTER_PLAYERS", "Description": "A list of players, along with details, currently assigned to a team's roster."}, "forDate": {"forDate": "2018-09-06", "lastUpdatedOn": "2018-09-19 7:54:37 AM"}}, {"feed": {"Name": "Game Starting Lineup", "Abbreviation": "GAME_STARTINGLINEUP", "Description": "Expected and Actual starting lineup for both teams of a game."}, "forGame": [{"game": [{"ID": "45944", "date": "2018-09-06", "awayTeam": {"ID": "68", "City": "Atlanta", "Name": "Falcons", "Abbreviation": "ATL"}, "homeTeam": {"ID": "54", "City": "Philadelphia", "Name": "Eagles", "Abbreviation": "PHI"}, "location": "Lincoln Financial Field"}], "lastUpdatedOn": "2018-09-07 12:01:58 AM"}, {"game": [{"ID": "45945", "date": "2018-09-09", "awayTeam": {"ID": "48", "City": "Buffalo", "Name": "Bills", "Abbreviation": "BUF"}, "homeTeam": {"ID": "56", "City": "Baltimore", "Name": "Ravens", "Abbreviation": "BAL"}, "location": "M&T Bank Stadium"}], "lastUpdatedOn": "2018-09-09 4:24:20 PM"}, {"game": [{"ID": "45946", "date": "2018-09-09", "awayTeam": {"ID": "57", "City": "Cincinnati", "Name": "Bengals", "Abbreviation": "CIN"}, "homeTeam": {"ID": "65", "City": "Indianapolis", "Name": "Colts", "Abbreviation": "IND"}, "location": "Lucas Oil Stadium"}], "lastUpdatedOn": "2018-09-09 4:16:44 PM"}, {"game": [{"ID": "45947", "date": "2018-09-09", "awayTeam": {"ID": "64", "City": "Houston", "Name": "Texans", "Abbreviation": "HOU"}, "homeTeam": {"ID": "50", "City": "New England", "Name": "Patriots", "Abbreviation": "NE"}, "location": "Gillette Stadium"}], "lastUpdatedOn": "2018-09-09 3:54:54 PM"}, {"game": [{"ID": "45948", "date": "2018-09-09", "awayTeam": {"ID": "66", "City": "Jacksonville", "Name": "Jaguars", "Abbreviation": "JAX"}, "homeTeam": {"ID": "53", "City": "New York", "Name": "Giants", "Abbreviation": "NYG"}, "location": "MetLife Stadium"}], "lastUpdatedOn": "2018-09-09 4:08:14 PM"}, {"game": [{"ID": "45949", "date": "2018-09-09", "awayTeam": {"ID": "59", "City": "Pittsburgh", "Name": "Steelers", "Abbreviation": "PIT"}, "homeTeam": {"ID": "58", "City": "Cleveland", "Name": "Browns", "Abbreviation": "CLE"}, "location": "FirstEnergy Stadium"}], "lastUpdatedOn": "2018-09-09 3:36:48 PM"}, {"game": [{"ID": "45950", "date": "2018-09-09", "awayTeam": {"ID": "78", "City": "San Francisco", "Name": "49ers", "Abbreviation": "SF"}, "homeTeam": {"ID": "63", "City": "Minnesota", "Name": "Vikings", "Abbreviation": "MIN"}, "location": "US Bank Stadium"}], "lastUpdatedOn": "2018-09-09 4:04:50 PM"}, {"game": [{"ID": "45951", "date": "2018-09-09", "awayTeam": {"ID": "71", "City": "Tampa Bay", "Name": "Buccaneers", "Abbreviation": "TB"}, "homeTeam": {"ID": "70", "City": "New Orleans", "Name": "Saints", "Abbreviation": "NO"}, "location": "Mercedes-Benz Stadium"}], "lastUpdatedOn": "2018-09-09 3:27:10 PM"}, {"game": [{"ID": "45952", "date": "2018-09-09", "awayTeam": {"ID": "67", "City": "Tennessee", "Name": "Titans", "Abbreviation": "TEN"}, "homeTeam": {"ID": "49", "City": "Miami", "Name": "Dolphins", "Abbreviation": "MIA"}, "location": "Hard Rock Stadium"}], "lastUpdatedOn": "2018-09-09 7:41:59 PM"}, {"game": [{"ID": "45953", "date": "2018-09-09", "awayTeam": {"ID": "73", "City": "Kansas City", "Name": "Chiefs", "Abbreviation": "KC"}, "homeTeam": {"ID": "75", "City": "Los Angeles", "Name": "Chargers", "Abbreviation": "LAC"}, "location": "StubHub Center"}], "lastUpdatedOn": "2018-09-09 6:57:41 PM"}, {"game": [{"ID": "45954", "date": "2018-09-09", "awayTeam": {"ID": "52", "City": "Dallas", "Name": "Cowboys", "Abbreviation": "DAL"}, "homeTeam": {"ID": "69", "City": "Carolina", "Name": "Panthers", "Abbreviation": "CAR"}, "location": "Bank of America Stadium"}], "lastUpdatedOn": "2018-09-09 6:57:20 PM"}, {"game": [{"ID": "45955", "date": "2018-09-09", "awayTeam": {"ID": "79", "City": "Seattle", "Name": "Seahawks", "Abbreviation": "SEA"}, "homeTeam": {"ID": "72", "City": "Denver", "Name": "Broncos", "Abbreviation": "DEN"}, "location": "Sports Authority Field"}], "lastUpdatedOn": "2018-09-09 7:25:45 PM"}, {"game": [{"ID": "45956", "date": "2018-09-09", "awayTeam": {"ID": "55", "City": "Washington", "Name": "Redskins", "Abbreviation": "WAS"}, "homeTeam": {"ID": "76", "City": "Arizona", "Name": "Cardinals", "Abbreviation": "ARI"}, "location": "University of Phoenix Stadium"}], "lastUpdatedOn": "2018-09-09 7:24:02 PM"}, {"game": [{"ID": "45957", "date": "2018-09-09", "awayTeam": {"ID": "60", "City": "Chicago", "Name": "Bears", "Abbreviation": "CHI"}, "homeTeam": {"ID": "62", "City": "Green Bay", "Name": "Packers", "Abbreviation": "GB"}, "location": "Lambeau Field"}], "lastUpdatedOn": "2018-09-09 11:15:58 PM"}, {"game": [{"ID": "45958", "date": "2018-09-10", "awayTeam": {"ID": "51", "City": "New York", "Name": "Jets", "Abbreviation": "NYJ"}, "homeTeam": {"ID": "61", "City": "Detroit", "Name": "Lions", "Abbreviation": "DET"}, "location": "Ford Field"}], "lastUpdatedOn": "2018-09-10 10:18:36 PM"}, {"game": [{"ID": "45959", "date": "2018-09-10", "awayTeam": {"ID": "77", "City": "Los Angeles", "Name": "Rams", "Abbreviation": "LA"}, "homeTeam": {"ID": "74", "City": "Oakland", "Name": "Raiders", "Abbreviation": "OAK"}, "location": "Oakland-Alameda Co. Coliseum"}], "lastUpdatedOn": "2018-09-11 1:29:24 AM"}, {"game": [{"ID": "45960", "date": "2018-09-13", "awayTeam": {"ID": "56", "City": "Baltimore", "Name": "Ravens", "Abbreviation": "BAL"}, "homeTeam": {"ID": "57", "City": "Cincinnati", "Name": "Bengals", "Abbreviation": "CIN"}, "location": "Paul Brown Stadium"}], "lastUpdatedOn": "2018-09-13 11:23:44 PM"}, {"game": [{"ID": "45961", "date": "2018-09-16", "awayTeam": {"ID": "69", "City": "Carolina", "Name": "Panthers", "Abbreviation": "CAR"}, "homeTeam": {"ID": "68", "City": "Atlanta", "Name": "Falcons", "Abbreviation": "ATL"}, "location": "Georgia Dome"}], "lastUpdatedOn": "2018-09-16 4:12:00 PM"}, {"game": [{"ID": "45962", "date": "2018-09-16", "awayTeam": {"ID": "58", "City": "Cleveland", "Name": "Browns", "Abbreviation": "CLE"}, "homeTeam": {"ID": "70", "City": "New Orleans", "Name": "Saints", "Abbreviation": "NO"}, "location": "Mercedes-Benz Stadium"}], "lastUpdatedOn": "2018-09-16 3:42:06 PM"}, {"game": [{"ID": "45963", "date": "2018-09-16", "awayTeam": {"ID": "64", "City": "Houston", "Name": "Texans", "Abbreviation": "HOU"}, "homeTeam": {"ID": "67", "City": "Tennessee", "Name": "Titans", "Abbreviation": "TEN"}, "location": "Nissan Stadium"}], "lastUpdatedOn": "2018-09-16 3:14:44 PM"}, {"game": [{"ID": "45964", "date": "2018-09-16", "awayTeam": {"ID": "65", "City": "Indianapolis", "Name": "Colts", "Abbreviation": "IND"}, "homeTeam": {"ID": "55", "City": "Washington", "Name": "Redskins", "Abbreviation": "WAS"}, "location": "FedEx Field"}], "lastUpdatedOn": "2018-09-16 3:59:33 PM"}, {"game": [{"ID": "45965", "date": "2018-09-16", "awayTeam": {"ID": "73", "City": "Kansas City", "Name": "Chiefs", "Abbreviation": "KC"}, "homeTeam": {"ID": "59", "City": "Pittsburgh", "Name": "Steelers", "Abbreviation": "PIT"}, "location": "Heinz Field"}], "lastUpdatedOn": "2018-09-16 4:26:49 PM"}, {"game": [{"ID": "45966", "date": "2018-09-16", "awayTeam": {"ID": "75", "City": "Los Angeles", "Name": "Chargers", "Abbreviation": "LAC"}, "homeTeam": {"ID": "48", "City": "Buffalo", "Name": "Bills", "Abbreviation": "BUF"}, "location": "New Era Field"}], "lastUpdatedOn": "2018-09-16 4:12:56 PM"}, {"game": [{"ID": "45967", "date": "2018-09-16", "awayTeam": {"ID": "49", "City": "Miami", "Name": "Dolphins", "Abbreviation": "MIA"}, "homeTeam": {"ID": "51", "City": "New York", "Name": "Jets", "Abbreviation": "NYJ"}, "location": "MetLife Stadium"}], "lastUpdatedOn": "2018-09-16 4:15:54 PM"}, {"game": [{"ID": "45968", "date": "2018-09-16", "awayTeam": {"ID": "63", "City": "Minnesota", "Name": "Vikings", "Abbreviation": "MIN"}, "homeTeam": {"ID": "62", "City": "Green Bay", "Name": "Packers", "Abbreviation": "GB"}, "location": "Lambeau Field"}], "lastUpdatedOn": "2018-09-16 4:07:16 PM"}, {"game": [{"ID": "45969", "date": "2018-09-16", "awayTeam": {"ID": "54", "City": "Philadelphia", "Name": "Eagles", "Abbreviation": "PHI"}, "homeTeam": {"ID": "71", "City": "Tampa Bay", "Name": "Buccaneers", "Abbreviation": "TB"}, "location": "Raymond James Stadium"}], "lastUpdatedOn": "2018-09-16 4:06:55 PM"}, {"game": [{"ID": "45970", "date": "2018-09-16", "awayTeam": {"ID": "76", "City": "Arizona", "Name": "Cardinals", "Abbreviation": "ARI"}, "homeTeam": {"ID": "77", "City": "Los Angeles", "Name": "Rams", "Abbreviation": "LA"}, "location": "Los Angeles Memorial Coliseum"}], "lastUpdatedOn": "2018-09-16 6:44:57 PM"}, {"game": [{"ID": "45971", "date": "2018-09-16", "awayTeam": {"ID": "61", "City": "Detroit", "Name": "Lions", "Abbreviation": "DET"}, "homeTeam": {"ID": "78", "City": "San Francisco", "Name": "49ers", "Abbreviation": "SF"}, "location": "Levi's Stadium"}], "lastUpdatedOn": "2018-09-16 7:08:06 PM"}, {"game": [{"ID": "45972", "date": "2018-09-16", "awayTeam": {"ID": "74", "City": "Oakland", "Name": "Raiders", "Abbreviation": "OAK"}, "homeTeam": {"ID": "72", "City": "Denver", "Name": "Broncos", "Abbreviation": "DEN"}, "location": "Sports Authority Field"}], "lastUpdatedOn": "2018-09-16 7:26:06 PM"}, {"game": [{"ID": "45973", "date": "2018-09-16", "awayTeam": {"ID": "50", "City": "New England", "Name": "Patriots", "Abbreviation": "NE"}, "homeTeam": {"ID": "66", "City": "Jacksonville", "Name": "Jaguars", "Abbreviation": "JAX"}, "location": "EverBank Field"}], "lastUpdatedOn": "2018-09-16 7:18:58 PM"}, {"game": [{"ID": "45974", "date": "2018-09-16", "awayTeam": {"ID": "53", "City": "New York", "Name": "Giants", "Abbreviation": "NYG"}, "homeTeam": {"ID": "52", "City": "Dallas", "Name": "Cowboys", "Abbreviation": "DAL"}, "location": "AT&T Stadium"}], "lastUpdatedOn": "2018-09-16 11:10:54 PM"}, {"game": [{"ID": "45975", "date": "2018-09-17", "awayTeam": {"ID": "79", "City": "Seattle", "Name": "Seahawks", "Abbreviation": "SEA"}, "homeTeam": {"ID": "60", "City": "Chicago", "Name": "Bears", "Abbreviation": "CHI"}, "location": "Soldier Field"}], "lastUpdatedOn": "2018-09-17 11:11:08 PM"}]}, {"feed": {"Name": "Player Game Logs", "Abbreviation": "PLAYER_GAMELOGS", "Description": "Game logs for one or more players"}, "lastUpdatedOn": "2018-09-19 7:54:35 AM"}, {"feed": {"Name": "Team Game Logs", "Abbreviation": "TEAM_GAMELOGS", "Description": "Game logs for one or more teams"}, "lastUpdatedOn": "2018-09-18 12:27:44 AM"}, {"feed": {"Name": "Roster Players", "Abbreviation": "ROSTER_PLAYERS", "Description": "A list of players, along with details, currently assigned to a team's roster."}, "forDate": {"lastUpdatedOn": null}}, {"feed": {"Name": "Game Starting Lineup", "Abbreviation": "GAME_STARTINGLINEUP", "Description": "Expected and Actual starting lineup for both teams of a game."}}, {"feed": {"Name": "Player Game Logs", "Abbreviation": "PLAYER_GAMELOGS", "Description": "Game logs for one or more players"}, "lastUpdatedOn": null}, {"feed": {"Name": "Team Game Logs", "Abbreviation": "TEAM_GAMELOGS", "Description": "Game logs for one or more teams"}, "lastUpdatedOn": null}, {"feed": {"Name": "Roster Players", "Abbreviation": "ROSTER_PLAYERS", "Description": "A list of players, along with details, currently assigned to a team's roster."}, "forDate": {"lastUpdatedOn": null}}, {"feed": {"Name": "Game Starting Lineup", "Abbreviation": "GAME_STARTINGLINEUP", "Description": "Expected and Actual starting lineup for both teams of a game."}}, {"feed": {"Name": "Player Game Logs", "Abbreviation": "PLAYER_GAMELOGS", "Description": "Game logs for one or more players"}, "lastUpdatedOn": null}, {"feed": {"Name": "Team Game Logs", "Abbreviation": "TEAM_GAMELOGS", "Description": "Game logs for one or more teams"}, "lastUpdatedOn": null}, {"feed": {"Name": "Active Players", "Abbreviation": "ACTIVE_PLAYERS", "Description": "A list of players for the entire league, regardless of whether assigned to a team's roster."}, "lastUpdatedOn": "2018-09-19 7:54:36 AM"}, {"feed": {"Name": "Active Players", "Abbreviation": "ACTIVE_PLAYERS", "Description": "A list of players for the entire league, regardless of whether assigned to a team's roster."}, "lastUpdatedOn": "2018-09-19 7:54:36 AM"}, {"feed": {"Name": "Active Players", "Abbreviation": "ACTIVE_PLAYERS", "Description": "A list of players for the entire league, regardless of whether assigned to a team's roster."}, "lastUpdatedOn": "2018-09-19 7:54:36 AM"}, {"feed": {"Name": "Overall Team Standings", "Abbreviation": "OVERALL_TEAM_STANDINGS", "Description": "A list of ranked team standings for ALL teams, along with stats."}, "lastUpdatedOn": "2018-09-18 12:27:06 AM"}, {"feed": {"Name": "Overall Team Standings", "Abbreviation": "OVERALL_TEAM_STANDINGS", "Description": "A list of ranked team standings for ALL teams, along with stats."}, "lastUpdatedOn": null}, {"feed": {"Name": "Overall Team Standings", "Abbreviation": "OVERALL_TEAM_STANDINGS", "Description": "A list of ranked team standings for ALL teams, along with stats."}, "lastUpdatedOn": null}, {"feed": {"Name": "Conference Team Standings", "Abbreviation": "CONFERENCE_TEAM_STANDINGS", "Description": "A list of ranked team standings for each Conference, along with stats."}, "lastUpdatedOn": "2018-09-18 12:27:06 AM"}, {"feed": {"Name": "Conference Team Standings", "Abbreviation": "CONFERENCE_TEAM_STANDINGS", "Description": "A list of ranked team standings for each Conference, along with stats."}, "lastUpdatedOn": null}, {"feed": {"Name": "Conference Team Standings", "Abbreviation": "CONFERENCE_TEAM_STANDINGS", "Description": "A list of ranked team standings for each Conference, along with stats."}, "lastUpdatedOn": null}, {"feed": {"Name": "Division Team Standings", "Abbreviation": "DIVISION_TEAM_STANDINGS", "Description": "A list of ranked team standings for each Division, along with stats."}, "lastUpdatedOn": "2018-09-18 12:27:06 AM"}, {"feed": {"Name": "Division Team Standings", "Abbreviation": "DIVISION_TEAM_STANDINGS", "Description": "A list of ranked team standings for each Division, along with stats."}, "lastUpdatedOn": null}, {"feed": {"Name": "Division Team Standings", "Abbreviation": "DIVISION_TEAM_STANDINGS", "Description": "A list of ranked team standings for each Division, along with stats."}, "lastUpdatedOn": null}, {"feed": {"Name": "Playoff Team Standings", "Abbreviation": "PLAYOFF_TEAM_STANDINGS", "Description": "A list of playoff-ranked team standings for each Conference, along with stats."}, "lastUpdatedOn": "2018-09-18 12:27:06 AM"}, {"feed": {"Name": "Playoff Team Standings", "Abbreviation": "PLAYOFF_TEAM_STANDINGS", "Description": "A list of playoff-ranked team standings for each Conference, along with stats."}, "lastUpdatedOn": null}, {"feed": {"Name": "Playoff Team Standings", "Abbreviation": "PLAYOFF_TEAM_STANDINGS", "Description": "A list of playoff-ranked team standings for each Conference, along with stats."}, "lastUpdatedOn": null}, {"feed": {"Name": "Player Injuries", "Abbreviation": "PLAYER_INJURIES", "Description": "A list of all currently injured players."}, "lastUpdatedOn": "2018-09-19 7:54:38 AM"}, {"feed": {"Name": "Player Injuries", "Abbreviation": "PLAYER_INJURIES", "Description": "A list of all currently injured players."}, "lastUpdatedOn": null}, {"feed": {"Name": "Player Injuries", "Abbreviation": "PLAYER_INJURIES", "Description": "A list of all currently injured players."}, "lastUpdatedOn": null}, {"feed": {"Name": "Latest Updates", "Abbreviation": "LATEST_UPDATES", "Description": "This feed lists the last updated date/time for each available feed."}, "lastUpdatedOn": "2018-09-19 7:54:39 AM"}, {"feed": {"Name": "Daily DFS", "Abbreviation": "DAILY_DFS", "Description": "A list of players, along with their DFS salaries and actual fantasy points."}, "forDate": [{"forDate": "2018-09-06", "lastUpdatedOn": "2018-09-13 2:11:00 PM"}, {"forDate": "2018-09-06", "lastUpdatedOn": "2018-09-19 7:54:41 AM"}, {"forDate": "2018-09-09", "lastUpdatedOn": "2018-09-13 4:23:14 PM"}, {"forDate": "2018-09-10", "lastUpdatedOn": "2018-09-13 4:31:03 PM"}, {"forDate": "2018-09-13", "lastUpdatedOn": "2018-09-14 12:59:27 AM"}, {"forDate": "2018-09-16", "lastUpdatedOn": "2018-09-17 9:32:07 AM"}, {"forDate": "2018-09-17", "lastUpdatedOn": "2018-09-18 12:27:15 AM"}, {"forDate": "2018-09-20", "lastUpdatedOn": "2018-09-18 8:14:15 AM"}]}, {"feed": {"Name": "Current Season", "Abbreviation": "CURRENT_SEASON", "Description": "The current season for a given date (or today), along with supported team/player stats."}, "forDate": {"forDate": "2018-09-09", "lastUpdatedOn": "2018-04-23 9:44:25 AM"}}, {"feed": {"Name": "Latest Updates", "Abbreviation": "LATEST_UPDATES", "Description": "This feed lists the last updated date/time for each available feed."}, "lastUpdatedOn": null}, {"feed": {"Name": "Daily DFS", "Abbreviation": "DAILY_DFS", "Description": "A list of players, along with their DFS salaries and actual fantasy points."}, "forDate": {"lastUpdatedOn": null}}, {"feed": {"Name": "Current Season", "Abbreviation": "CURRENT_SEASON", "Description": "The current season for a given date (or today), along with supported team/player stats."}, "forDate": {"lastUpdatedOn": null}}, {"feed": {"Name": "Latest Updates", "Abbreviation": "LATEST_UPDATES", "Description": "This feed lists the last updated date/time for each available feed."}, "lastUpdatedOn": null}, {"feed": {"Name": "Daily DFS", "Abbreviation": "DAILY_DFS", "Description": "A list of players, along with their DFS salaries and actual fantasy points."}, "forDate": {"lastUpdatedOn": null}}, {"feed": {"Name": "Current Season", "Abbreviation": "CURRENT_SEASON", "Description": "The current season for a given date (or today), along with supported team/player stats."}, "forDate": {"lastUpdatedOn": null}}]}}